,OSEBuildingID,DataYear,BuildingType,PrimaryPropertyType,PropertyName,Address,City,State,ZipCode,TaxParcelIdentificationNumber,CouncilDistrictCode,Neighborhood,Latitude,Longitude,NumberofBuildings,NumberofFloors,PropertyGFATotal,PropertyGFAParking,PropertyGFABuilding(s),ListOfAllPropertyUseTypes,LargestPropertyUseType,LargestPropertyUseTypeGFA,SecondLargestPropertyUseType,SecondLargestPropertyUseTypeGFA,ENERGYSTARScore,SiteEUI(kBtu/sf),SiteEUIWN(kBtu/sf),SourceEUI(kBtu/sf),SourceEUIWN(kBtu/sf),SiteEnergyUse(kBtu),SiteEnergyUseWN(kBtu),SteamUse(kBtu),Electricity(kWh),Electricity(kBtu),NaturalGas(therms),NaturalGas(kBtu),DefaultData,ComplianceStatus,TotalGHGEmissions,GHGEmissionsIntensity,BuildingAge,ConsommeGaz
0,1,2016,NonResidential,Hotel,Mayflower park hotel,405 Olive way,Seattle,WA,98101.0,0659000030,7,DOWNTOWN,47.6122,-122.33799,1.0,12,88434,0,88434,Hotel,Hotel,88434.0,,,60.0,81.69999695,84.30000305,182.5,189.0,7226362.5,7456910.0,2003882.0,1156514.25,3946027.0,12764.5293,1276453.0,False,Compliant,249.98,2.83,89,1
1,2,2016,NonResidential,Hotel,Paramount Hotel,724 Pine street,Seattle,WA,98101.0,0659000220,7,DOWNTOWN,47.61317,-122.33393,1.0,11,103566,15064,88502,"Hotel, Parking, Restaurant",Hotel,83880.0,Parking,15064.0,61.0,94.80000305,97.90000153,176.1000061,179.3999939,8387933.0,8664479.0,0.0,950425.1875,3242851.0,51450.81641,5145082.0,False,Compliant,295.86,2.86,20,1
2,3,2016,NonResidential,Hotel,5673-The Westin Seattle,1900 5th Avenue,Seattle,WA,98101.0,0659000475,7,DOWNTOWN,47.61393,-122.3381,1.0,41,956110,196718,759392,Hotel,Hotel,756493.0,,,43.0,96.0,97.69999695,241.8999939,244.1000061,72587024.0,73937112.0,21566554.0,14515435.0,49526664.0,14938.0,1493800.0,False,Compliant,2089.28,2.19,47,1
3,5,2016,NonResidential,Hotel,HOTEL MAX,620 STEWART ST,Seattle,WA,98101.0,0659000640,7,DOWNTOWN,47.61412,-122.33664,1.0,10,61320,0,61320,Hotel,Hotel,61320.0,,,56.0,110.8000031,113.3000031,216.1999969,224.0,6794584.0,6946800.5,2214446.25,811525.3125,2768924.0,18112.13086,1811213.0,False,Compliant,286.43,4.67,90,1
4,8,2016,NonResidential,Hotel,WARWICK SEATTLE HOTEL (ID8),401 LENORA ST,Seattle,WA,98121.0,0659000970,7,DOWNTOWN,47.61375,-122.34047,1.0,18,175580,62000,113580,"Hotel, Parking, Swimming Pool",Hotel,123445.0,Parking,68009.0,75.0,114.8000031,118.6999969,211.3999939,215.6000061,14172606.0,14656503.0,0.0,1573448.625,5368607.0,88039.98438,8803998.0,False,Compliant,505.01,2.88,36,1
6,10,2016,NonResidential,Hotel,Camlin,1619 9th Avenue,Seattle,WA,98101.0,0660000825,7,DOWNTOWN,47.6139,-122.33283,1.0,11,83008,0,83008,Hotel,Hotel,81352.0,,,27.0,70.80000305,74.5,146.6000061,154.6999969,5758795.0,6062767.5,0.0,823919.875,2811215.0,29475.80078,2947580.0,False,Compliant,176.14,2.12,90,1
8,12,2016,NonResidential,Hotel,311wh-Pioneer Square,612 2nd Ave,Seattle,WA,98104.0,0939000080,7,DOWNTOWN,47.60294,-122.33263,1.0,15,163984,0,163984,Hotel,Hotel,163984.0,,,43.0,83.69999695,86.59999847,180.8999939,187.1999969,13723820.0,14194054.0,0.0,2138897.75,7297919.0,64259.0,6425900.0,False,Compliant,392.16,2.39,112,1
10,15,2016,NonResidential,Hotel,Hotel Monaco Seattle,1101 4th Avenue,Seattle,WA,98101.0,0942000145,7,DOWNTOWN,47.60695,-122.33414,1.0,11,153163,19279,133884,Hotel,Hotel,133884.0,,,30.0,119.5999985,124.3000031,228.1999969,233.0,16016644.0,16646930.0,5237165.5,1813489.875,6187627.0,45918.5,4591850.0,False,Compliant,691.26,4.51,47,1
11,16,2016,NonResidential,Hotel,5679-W Seattle,1112 Fourth Avenue,Seattle,WA,98101.0,0942000165,7,DOWNTOWN,47.60713,-122.33323,1.0,25,333176,61161,272015,Hotel,Hotel,336640.0,,,36.0,80.0,80.40000153,199.0,199.3999939,26941110.0,27070114.0,5999360.5,5299838.5,18083049.0,28586.99805,2858700.0,False,Compliant,740.97,2.22,18,1
12,17,2016,NonResidential,Hotel,Executive Pacific Plaza,400 Spring Street,Seattle,WA,98104.0,0942000210,7,DOWNTOWN,47.60699,-122.33346,1.0,9,65009,0,65009,Hotel,Hotel,65009.0,,,48.0,101.5,97.80000305,153.6000061,149.8000031,6596057.5,6358719.5,1656352.5,393610.6875,1343000.0,35967.05078,3596705.0,False,Compliant,328.23,5.05,88,1
13,18,2016,NonResidential,Hotel,Crowne Plaza Hotel Seattle,1113 6th Ave,Seattle,WA,98101.0,0942000235,7,DOWNTOWN,47.60809,-122.33212,1.0,33,315952,57600,258352,"Hotel, Parking",Hotel,295511.0,Parking,57600.0,58.0,75.5,76.19999695,179.8999939,180.6999969,22325364.0,22524948.0,4337738.5,4075083.0,13904183.0,40834.39844,4083440.0,False,Compliant,648.62,2.05,36,1
14,19,2016,NonResidential,Hotel,Hotel Vintage Seattle,1100 5th Avenue,Seattle,WA,98101.0,0942000265,7,DOWNTOWN,47.60755,-122.33244,1.0,11,92190,25200,66990,"Hotel, Parking",Hotel,67390.0,Parking,25200.0,35.0,159.5,165.8999939,297.3999939,303.8999939,10750010.0,11179203.0,4870847.5,1123203.125,3832369.0,20467.93359,2046793.0,False,Compliant,511.39,5.55,94,1
17,23,2016,NonResidential,Hotel,Renaissance Seattle Hotel,515 Madison Street,Seattle,WA,98104.0,0942000430,7,DOWNTOWN,47.60681,-122.33078,1.0,28,416281,85000,331281,"Hotel, Parking",Hotel,348329.0,Parking,85000.0,31.0,96.30000305,98.59999847,228.5,232.8000031,33556756.0,34351920.0,0.0,6220773.0,21225277.0,123314.75,12331475.0,False,Compliant,802.89,1.93,33,1
19,25,2016,NonResidential,Hotel,Arctic Club Seattle,700 3rd Ave,Seattle,WA,98104.0,0942000610,7,DOWNTOWN,47.60376,-122.33194,1.0,10,104352,0,104352,Hotel,Hotel,104352.0,,,39.0,97.30000305,97.30000305,225.5,225.5,10154608.0,10154608.0,3430862.0,1731644.125,5908370.0,8153.759766,815376.0,False,Compliant,349.32,3.35,100,1
20,26,2016,NonResidential,Other,King County Courthouse,516 3RD AVE,Seattle,WA,98104.0,0942000860,7,DOWNTOWN,47.60265,-122.33051,1.0,10,540360,0,540360,Courthouse,Courthouse,537150.0,,,76.0,83.69999695,87.5,182.6999969,186.6999969,44984468.0,47023088.0,0.0,7138872.5,24357833.0,206266.3125,20626631.0,False,Compliant,1265.29,2.34,100,1
22,28,2016,SPS-District K-12,K-12 School,Graham Hill Elementary,5149 S. Graham St.,Seattle,WA,98118.0,1102000138,2,SOUTHEAST,47.54576,-122.26853,1.0,2,56228,0,56228,K-12 School,K-12 School,58916.0,,,95.0,26.10000038,29.10000038,60.70000076,64.59999847,1539478.5,1713623.5,0.0,274605.9063,936955.0,6025.229004,602523.0,True,Error - Correct Default Data,38.53,0.69,55,1
23,29,2016,NonResidential,Hotel,WATERTOWN HOTEL,4242 ROOSEVELT WAY NE,Seattle,WA,98105.0,1142000755,4,NORTHEAST,47.65959,-122.31755,1.0,6,88592,30586,58006,"Hotel, Parking",Hotel,58006.0,Parking,30586.0,84.0,63.20000076,63.29999924,148.0,148.5,3663534.5,3673186.75,0.0,664194.375,2266231.0,13973.03027,1397303.0,False,Compliant,90.01,1.02,15,1
27,33,2016,NonResidential,Hotel,Marriott Springhill Suites (33),1800 Yale Ave,Seattle,WA,98101.0,0660002680,7,DOWNTOWN,47.61784,-122.32966,1.0,10,171866,38281,133585,Hotel,Hotel,128909.0,,,57.0,85.80000305,86.69999695,181.1000061,180.6000061,11061916.0,11171407.0,0.0,1644403.75,5610706.0,54512.09766,5451210.0,False,Compliant,328.63,1.91,15,1
29,35,2016,NonResidential,Hotel,Hotel Five,2200 5th ave,Seattle,WA,98121.0,0697000170,7,DOWNTOWN,47.61558,-122.34186,1.0,5,68410,16200,52210,Hotel,Hotel,47994.0,,,57.0,92.90000153,95.0,199.6999969,206.3000031,4456714.5,4557974.0,0.0,687675.625,2346349.0,21103.65039,2110365.0,False,Compliant,128.44,1.88,38,1
30,36,2016,SPS-District K-12,K-12 School,Jane Addams Middle,11051 34th Ave. N.E.,Seattle,WA,98125.0,0752000170,5,NORTH,47.70994,-122.29301,1.0,2,160645,0,160645,K-12 School,K-12 School,164229.0,,,75.0,41.29999924,47.5,68.09999847,75.69999695,6779173.0,7800349.5,0.0,570809.1875,1947601.0,48315.71875,4831572.0,True,Error - Correct Default Data,270.18,1.68,67,1
33,40,2016,NonResidential,Hotel,Silver Cloud University,5036 25th Ave NE,Seattle,WA,98105.0,0925049117,4,NORTHEAST,47.66583,-122.29965,1.0,4,81871,0,81871,Hotel,Hotel,81871.0,,,29.0,81.5,82.19999695,162.5,164.8999939,6668568.5,6731281.5,0.0,884056.0,3016399.0,36521.69141,3652169.0,False,Compliant,215.0,2.63,22,1
35,43,2016,Campus,Mixed Use Property,Plant 2 Site,7755 E MARGINAL WAY S,Seattle,WA,98108.0,0022000005,2,GREATER DUWAMISH,47.53493,-122.31788,1.0,3,494835,0,494835,"Energy/Power Station, Laboratory, Manufacturing/Industrial Plant, Non-Refrigerated Warehouse, Office",Office,757027.0,Laboratory,639931.0,8.0,221.6999969,233.1000061,388.2000122,400.2999878,448385312.0,471613856.0,0.0,44102076.0,150476283.0,2979090.0,297909000.0,False,Compliant,16870.98,34.09,24,1
37,50,2016,SPS-District K-12,K-12 School,Lawton Elementary,4000 27th Ave. W.,Seattle,WA,98199.0,0369000400,7,MAGNOLIA / QUEEN ANNE,47.65671,-122.39047,1.0,2,54986,0,54986,K-12 School,K-12 School,54986.0,,,97.0,30.0,32.79999924,77.80000305,83.19999695,1650279.25,1802471.375,0.0,356855.0,1217589.0,4326.897461,432690.0,False,Compliant,31.47,0.57,26,1
38,51,2016,SPS-District K-12,K-12 School,Eckstein Middle,3003 N.E. 75th St.,Seattle,WA,98115.0,0425049022,4,NORTHEAST,47.68252,-122.29498,1.0,2,175565,0,175565,K-12 School,K-12 School,182861.0,,,88.0,35.0,40.09999847,55.0,60.40000153,6399127.5,7329817.5,0.0,468840.5,1599684.0,47994.43359,4799443.0,True,Error - Correct Default Data,266.05,1.52,66,1
39,52,2016,NonResidential,Small- and Mid-Sized Office,SBC52,5305 Shilshole Ave NW,Seattle,WA,98107.0,0467000429,6,BALLARD,47.66587,-122.38476,1.0,2,94900,0,94900,"Non-Refrigerated Warehouse, Office",Office,55586.0,Non-Refrigerated Warehouse,39314.0,57.0,65.19999695,68.90000153,163.0,165.8999939,6186461.5,6536359.5,0.0,1257791.75,4291585.0,18948.75977,1894876.0,False,Compliant,130.56,1.38,55,1
40,53,2016,NonResidential,Small- and Mid-Sized Office,El Centro de la Raza,2524 16th Ave S,Seattle,WA,98144.0,0570000340,2,GREATER DUWAMISH,47.58034,-122.31132,1.0,2,52554,0,52554,"Office, Other - Education",Office,51029.0,Other - Education,7849.0,83.0,50.09999847,53.5,108.6999969,112.3000031,2951331.25,3150635.5,0.0,462998.0,1579749.0,13715.82031,1371582.0,False,Compliant,83.86,1.6,116,1
41,54,2016,NonResidential,K-12 School,Blanchet High School,8200 Wallingford Ave. N,Seattle,WA,98103.0,0625049002,6,NORTHWEST,47.68891,-122.33553,1.0,3,175015,0,175015,K-12 School,K-12 School,175015.0,,,95.0,40.0,45.09999847,74.0,80.40000153,6994740.5,7886505.5,0.0,785386.6875,2679739.0,43150.00781,4315001.0,False,Compliant,247.85,1.42,62,1
43,56,2016,NonResidential,Hotel,Seattle Hilton Hotel,1301 Sixth Ave,Seattle,WA,98101.0,1975700040,7,DOWNTOWN,47.60946,-122.33337,1.0,24,332210,205970,126240,Hotel,Hotel,348630.0,,,67.0,46.40000153,46.40000153,121.8000031,121.8000031,16163194.0,16163194.0,0.0,3576906.75,12204406.0,39587.86719,3958787.0,False,Compliant,295.33,0.89,47,1
44,57,2016,NonResidential,Large Office,5th and Pine,413 Pine Street,Seattle,WA,98101.0,1975700200,7,DOWNTOWN,47.6113,-122.33659,1.0,5,168115,0,168115,"Data Center, Office, Retail Store",Office,103362.0,Retail Store,65676.0,78.0,56.29999924,56.29999924,176.6000061,176.6000061,9536161.0,9536161.0,0.0,2794888.75,9536160.0,0.0,0.0,False,Compliant,66.48,0.4,43,0
46,59,2016,NonResidential,Small- and Mid-Sized Office,Gibraltar Tower,1520 3rd Ave,Seattle,WA,98101.0,1975700380,7,DOWNTOWN,47.61048,-122.33794,1.0,8,59400,0,59400,"Office, Retail Store",Office,34947.0,Retail Store,4993.0,14.0,85.40000153,88.30000305,398.7000122,412.2000122,5071974.0,5242479.5,0.0,1486510.375,5071973.0,0.0,0.0,False,Compliant,35.36,0.6,106,0
48,62,2016,NonResidential,Hotel,Roosevelt Hotel,1531 7th Ave,Seattle,WA,98101.0,1976700010,7,DOWNTOWN,47.61233,-122.33432,1.0,20,98634,10043,88591,"Hotel, Parking, Restaurant",Hotel,83591.0,Parking,10043.0,71.0,54.59999847,57.29999924,158.6000061,167.0,4841347.5,5078816.0,0.0,1257344.25,4290059.0,5512.879883,551288.0,False,Compliant,59.19,0.6,86,1
49,63,2016,NonResidential,Hotel,Sheraton Seattle Hotel,1400 6th Avenue,Seattle,WA,98101.0,1976700095,7,DOWNTOWN,47.61087,-122.33339,1.0,34,994212,146694,847518,"Hotel, Parking, Swimming Pool",Hotel,994212.0,Parking,117668.0,63.0,80.90000153,82.80000305,182.5,184.5,80469216.0,82318072.0,11598686.0,13348631.0,45545529.0,233249.9219,23324992.0,False,Compliant,2451.58,2.47,34,1
50,65,2016,NonResidential,Hotel,Inn at the Market,86 Pine St,Seattle,WA,98101.0,1977200050,7,DOWNTOWN,47.60997,-122.34138,1.0,7,71150,0,71150,"Hotel, Parking, Restaurant, Retail Store",Hotel,41340.0,Parking,13730.0,98.0,93.09999847,93.09999847,215.8999939,215.8999939,5348309.0,5348309.0,0.0,950732.8125,3243900.0,21044.08008,2104408.0,False,Compliant,134.38,1.89,31,1
51,66,2016,NonResidential,Hotel,Moore Hotel INC,1926 2nd Ave,Seattle,WA,98101.0,1977201035,7,DOWNTOWN,47.61155,-122.34114,1.0,7,122810,0,122810,"Hotel, Other - Entertainment/Public Assembly, Retail Store",Hotel,88360.0,Other - Entertainment/Public Assembly,26450.0,99.0,44.0,49.59999847,68.19999695,74.09999847,5401277.5,6088417.5,0.0,379121.0938,1293561.0,41077.16016,4107716.0,False,Compliant,227.18,1.85,108,1
52,67,2016,NonResidential,Hotel,QUALITY INN,618 JOHN ST,Seattle,WA,98109.0,1991200730,7,LAKE UNION,47.61986,-122.34413,1.0,5,113173,42546,70627,"Hotel, Parking",Hotel,70627.0,Parking,42546.0,86.0,74.80000305,76.90000153,165.6999969,172.1000061,5284343.5,5428403.5,0.0,863036.3125,2944680.0,23396.62891,2339663.0,False,Compliant,144.79,1.28,57,1
53,68,2016,NonResidential,Hotel,Rainier Hospitality,211 Dexter Ave N,Seattle,WA,98109.0,1991200935,7,LAKE UNION,47.62001,-122.34274,1.0,7,150453,34735,115718,Hotel,Hotel,107547.0,Restaurant,3000.0,84.0,60.70000076,61.79999924,128.0,129.8000031,6715187.0,6835263.5,0.0,995342.5,3396109.0,33190.77734,3319078.0,False,Compliant,199.95,1.33,16,1
54,69,2016,NonResidential,Hotel,Sequim Lodging Corp,226 Aurora Ave N,Seattle,WA,98109.0,1991200940,7,LAKE UNION,47.62025,-122.34314,1.0,6,116300,28200,88100,Hotel,Hotel,88490.0,Parking,28300.0,80.0,65.90000153,67.09999847,144.5,147.1000061,5827595.5,5941927.0,0.0,934483.3125,3188457.0,26391.38086,2639138.0,False,Compliant,162.39,1.4,19,1
55,70,2016,NonResidential,Hotel,Homewood Suites by Hilton Seattle Downtonw,206 Western Ave West,Seattle,WA,98119.0,1992200235,7,MAGNOLIA / QUEEN ANNE,47.62023,-122.35951,1.0,6,155602,36744,118858,Hotel,Hotel,155602.0,,,81.0,43.90000153,44.0,107.4000015,107.5999985,6836900.0,6849826.5,0.0,1336148.125,4558937.0,22779.61914,2277962.0,False,Compliant,152.76,0.98,18,1
56,73,2016,NonResidential,K-12 School,Seattle Hebrew Academy,1617 Interlaken Drive East,Seattle,WA,98136.0,2125049015,3,EAST,47.63442,-122.30793,1.0,3,56072,0,56072,K-12 School,K-12 School,56072.0,,,76.0,57.70000076,67.80000305,81.09999847,92.69999695,3234787.75,3800842.5,0.0,161743.0938,551867.0,26829.20117,2682920.0,False,Compliant,146.34,2.61,105,1
57,77,2016,NonResidential,Hotel,Comfort Suites Seattle Center,601 Roy St,Seattle,WA,98109.0,2249000170,7,MAGNOLIA / QUEEN ANNE,47.62519,-122.34456,1.0,4,122942,44891,78051,"Hotel, Parking",Hotel,78051.0,Parking,44891.0,94.0,68.40000153,69.0,136.6999969,138.6999969,5337334.0,5387530.0,0.0,710354.5,2423730.0,29136.03906,2913604.0,False,Compliant,171.64,1.4,17,1
58,82,2016,NonResidential,Small- and Mid-Sized Office,Dept of Social & Health Services,1700 E. Cherry St,Seattle,WA,98122.0,2254501944,3,CENTRAL,47.60823,-122.30956,1.0,2,54984,0,54984,Office,Office,54984.0,,,71.0,61.40000153,66.0,139.6000061,144.5,3375211.0,3630147.25,0.0,579786.0,1978230.0,13969.80957,1396981.0,False,Compliant,87.98,1.6,54,1
59,84,2016,NonResidential,Senior Care Community,PSSA - The Mount,4831 35th Ave SW,Seattle,WA,98126.0,2324039001,1,SOUTHWEST,47.55837,-122.37751,1.0,5,217603,0,217603,"Parking, Senior Care Community",Senior Care Community,296313.0,Parking,0.0,54.0,144.3999939,153.6999969,235.0,244.8000031,42792072.0,45547252.0,0.0,3465642.5,11824772.0,309673.0,30967300.0,False,Compliant,1727.11,7.94,94,1
60,85,2016,NonResidential,Senior Care Community,Foss Home and Village,13023 Greenwood Ave. N,Seattle,WA,98133.0,2426039059,5,NORTHWEST,47.72426,-122.35599,1.0,2,93397,0,93397,Senior Care Community,Senior Care Community,93397.0,,,1.0,175.6000061,181.6000061,311.5,320.0,16402563.0,16959754.0,0.0,1664565.75,5679498.0,107230.6406,10723064.0,False,Compliant,609.1,6.52,46,1
61,86,2016,NonResidential,Hotel,SCCA - ALLIANCE HOUSE,207 Pontius Ave N,Seattle,WA,98109.0,2467400430,7,LAKE UNION,47.61988,-122.33211,1.0,6,84103,20732,63371,"Hotel, Parking",Hotel,63371.0,Parking,20732.0,74.0,58.5,59.79999924,154.1999969,156.6999969,3706100.25,3787499.0,0.0,824351.625,2812688.0,8934.120117,893412.0,False,Compliant,67.06,0.8,8,1
63,89,2016,NonResidential,Medical Office,Polyclinic North && South,1200 Harvard Ave,Seattle,WA,98122.0,1978201270,3,EAST,47.61244,-122.3214,0.0,3,179014,0,179014,Medical Office,Medical Office,179014.0,,,48.0,93.30000305,92.30000305,213.3999939,210.3000031,16701055.0,16527711.0,0.0,2897562.75,9886484.0,68145.70313,6814570.0,False,Compliant,430.84,2.41,51,1
64,95,2016,NonResidential,Hotel,Sorrento Hotel,900 Madison St.,Seattle,WA,98104.0,1979200270,3,EAST,47.60898,-122.32693,1.0,7,76631,0,76631,Hotel,Hotel,76631.0,,,71.0,94.69999695,94.59999847,172.0,171.6999969,7258758.5,7250730.5,0.0,779819.0,2660742.0,45980.16016,4598016.0,False,Compliant,262.75,3.43,108,1
66,98,2016,NonResidential,Retail Store,Firestone Store#012432,400 Westlake Ave N,Seattle,WA,98109.0,1983200230,7,LAKE UNION,47.62237,-122.33805,1.0,2,58320,0,58320,Retail Store,Retail Store,72072.0,,,96.0,14.60000038,17.20000076,25.79999924,28.79999924,1049748.625,1243027.75,0.0,106038.5,361803.0,6879.452148,687945.0,False,Compliant,39.06,0.67,87,1
67,100,2016,NonResidential,Large Office,City Place III - SEDO,551 Boren Ave. North,Seattle,WA,98109.0,1983200325,7,LAKE UNION,47.62424,-122.33646,1.0,5,316306,0,316306,"Office, Other, Parking, Retail Store",Office,261826.0,Parking,150726.0,96.0,48.0,48.40000153,144.0,144.3999939,13795954.0,13909270.0,0.0,3772301.0,12871091.0,9248.610352,924861.0,False,Compliant,138.85,0.44,6,1
68,102,2016,NonResidential,Hotel,Residence Inn Seattle - Lake Union,800 Fairview Ave. N,Seattle,WA,98109.0,1984200065,3,LAKE UNION,47.62642,-122.33325,1.0,7,282863,44766,238097,"Hotel, Parking",Hotel,235788.0,Parking,51537.0,37.0,82.5,85.59999847,184.0,189.1999969,19459304.0,20194606.0,0.0,3218245.0,10980652.0,84786.50781,8478651.0,False,Compliant,526.85,1.86,26,1
72,107,2016,NonResidential,Large Office,City Place IV - SEDO,333 Boren Ave. N.,Seattle,WA,98109.0,1986200410,7,LAKE UNION,47.62112,-122.33629,1.0,12,571329,0,571329,"Office, Other, Parking",Office,598801.0,Parking,310699.0,91.0,63.40000153,64.19999695,174.1999969,176.3999939,39605888.0,40153432.0,0.0,9439097.0,32206199.0,73996.85156,7399685.0,False,Compliant,617.52,1.08,6,1
77,114,2016,NonResidential,Large Office,Bill and Melinda Gates Foundation,500 5th Ave N,Seattle,WA,98109.0,1988201155,7,MAGNOLIA / QUEEN ANNE,47.62419,-122.34443,1.0,6,920598,303707,616891,"Office, Other, Parking",Office,729584.0,Parking,185014.0,93.0,49.79999924,51.79999924,130.8000031,131.6000061,36667044.0,38105108.0,0.0,8088294.5,27597261.0,90697.79688,9069780.0,False,Compliant,674.09,0.73,6,1
78,115,2016,NonResidential,Small- and Mid-Sized Office,J.G. Scripps Building,221 1st Ave. W,Seattle,WA,98033.0,1989200850,7,MAGNOLIA / QUEEN ANNE,47.62053,-122.35842,1.0,4,76213,25930,50283,"Office, Other, Parking",Office,48546.0,Parking,21454.0,68.0,68.19999695,71.59999847,192.3999939,196.0,3476212.5,3647345.75,0.0,863039.875,2944692.0,5315.200195,531520.0,False,Compliant,48.76,0.64,46,1
79,116,2016,NonResidential,Hotel,MEDITERRANEAN INN (ID#116),425 queen anne ave N.,Seattle,WA,98109.0,1989201125,7,MAGNOLIA / QUEEN ANNE,47.62291,-122.35708,1.0,6,96910,36934,59976,"Hotel, Parking",Hotel,59976.0,Parking,36934.0,56.0,86.0,87.90000153,182.1999969,188.3999939,5155568.5,5274523.0,0.0,772863.625,2637011.0,25185.58008,2518558.0,False,Compliant,152.14,1.57,14,1
80,117,2016,NonResidential,Hotel,UNIVERSITY INN,4140 ROOSEVELT WAY NE,Seattle,WA,98105.0,1142001871,4,NORTHEAST,47.65772,-122.31756,2.0,4,50017,0,50017,"Hotel, Swimming Pool",Hotel,50017.0,Swimming Pool,0.0,53.0,108.9000015,110.5,203.3000031,205.8000031,5448975.0,5528580.5,0.0,623770.6875,2128306.0,33206.69141,3320669.0,False,Compliant,191.2,3.82,54,1
82,119,2016,NonResidential,K-12 School,St. Joseph K-8 School,700 18th Ave. E.,Seattle,WA,98112.0,1336800825,3,EAST,47.62548,-122.30828,1.0,3,67743,0,67743,K-12 School,K-12 School,67743.0,,,34.0,39.09999847,44.79999924,82.30000305,89.30000305,2646879.0,3036464.0,0.0,392082.5938,1337786.0,13090.93066,1309093.0,False,Compliant,78.85,1.16,93,1
83,120,2016,NonResidential,K-12 School,Holy Names Academy,728 21st Ave East,Seattle,WA,98112.0,1338800660,3,EAST,47.62644,-122.30429,1.0,6,194104,0,194104,K-12 School,K-12 School,194104.0,,,100.0,32.0,37.09999847,54.0,60.09999847,6219841.5,7204080.0,0.0,553309.6875,1887893.0,43319.48828,4331949.0,False,Compliant,243.23,1.25,108,1
84,121,2016,NonResidential,Small- and Mid-Sized Office,2100 Building,2100 24th Ave S,Seattle,WA,98144.0,1498303116,3,SOUTHEAST,47.58408,-122.30125,1.0,3,99433,35752,63681,"Office, Parking",Office,63681.0,Parking,35752.0,63.0,76.90000153,78.19999695,241.5,245.6000061,4897760.0,4980737.5,0.0,1435451.25,4897760.0,0.0,0.0,False,Compliant,34.14,0.34,13,0
86,125,2016,SPS-District K-12,K-12 School,Mercer International Middle,1600 Columbian Way S.,Seattle,WA,98108.0,1624049214,2,GREATER DUWAMISH,47.56413,-122.31208,1.0,1,130862,0,130862,K-12 School,K-12 School,134446.0,,,61.0,48.0,54.29999924,85.59999847,93.5,6456026.0,7300977.5,0.0,663194.5,2262820.0,41932.06641,4193207.0,True,Error - Correct Default Data,238.48,1.82,59,1
87,127,2016,SPS-District K-12,K-12 School,Orca K-8 School,5215 46th Ave. S.,Seattle,WA,98118.0,1704900242,2,SOUTHEAST,47.55478,-122.27596,1.0,3,59955,0,59955,K-12 School,K-12 School,59955.0,,,93.0,27.20000076,29.20000076,78.69999695,83.0,1633399.375,1749171.25,0.0,420989.4063,1436416.0,1969.83252,196983.0,True,Error - Correct Default Data,20.48,0.34,27,1
88,130,2016,SPS-District K-12,K-12 School,McClure Middle,1915 1st Ave. W.,Seattle,WA,98119.0,1794501220,7,MAGNOLIA / QUEEN ANNE,47.63683,-122.35896,1.0,2,93218,0,93218,K-12 School,K-12 School,93218.0,,,86.0,31.0,34.5,65.90000153,70.80000305,2887392.0,3216155.0,0.0,435743.8125,1486758.0,14006.33984,1400634.0,True,Error - Correct Default Data,84.75,0.91,52,1
91,136,2016,NonResidential,Hotel,Holiday Inn Express North Seattle Shoreline,14115 Aurora Ave N,Seattle,WA,98133.0,1926049012,5,NORTHWEST,47.73141,-122.3458,1.0,4,51390,0,51390,"Hotel, Parking",Hotel,51390.0,Parking,0.0,89.0,70.30000305,70.40000153,130.6999969,130.8999939,3611538.0,3616214.0,0.0,409815.0,1398289.0,22132.49023,2213249.0,False,Compliant,127.29,2.48,15,1
92,137,2016,SPS-District K-12,K-12 School,Broadview-Thomson K-8,13052 Greenwood Ave. N.,Seattle,WA,98133.0,1926049025,5,NORTHWEST,47.72463,-122.35315,1.0,2,131013,0,131013,K-12 School,K-12 School,131909.0,,,88.0,29.5,32.5,59.09999847,62.90000153,3894584.5,4290831.5,0.0,520365.6875,1775488.0,21190.9668,2119097.0,True,Error - Correct Default Data,124.92,0.95,53,1
93,138,2016,SPS-District K-12,K-12 School,Ingraham High,1819 N. 135th St.,Seattle,WA,98133.0,1926049321,5,NORTHWEST,47.7257,-122.33684,1.0,1,245587,0,245587,K-12 School,K-12 School,245587.0,,,92.0,47.90000153,52.40000153,83.69999695,89.09999847,11765682.0,12870916.0,0.0,1150648.125,3926011.0,78396.69531,7839670.0,False,Compliant,443.73,1.81,57,1
94,139,2016,NonResidential,Hotel,7066-Seattle-Northgate,13300 Stone Avenue N,Seattle,WA,98133.0,1926049434,5,NORTHWEST,47.72551,-122.3423,1.0,3,69138,0,69138,Hotel,Hotel,70609.0,,,78.0,45.90000153,47.09999847,101.5999985,104.6999969,3242458.0,3323400.5,0.0,528396.6875,1802889.0,14395.68164,1439568.0,False,Compliant,89.02,1.29,14,1
96,144,2016,NonResidential,Hotel,Alexis Hotel,1007 First Ave.,Seattle,WA,98104.0,1974600035,7,DOWNTOWN,47.6048,-122.3368,1.0,5,190980,0,190980,"Hotel, Parking",Hotel,190980.0,Parking,19051.0,98.0,34.09999847,34.09999847,84.0,84.0,6505995.0,6505995.0,0.0,1290419.25,4402910.0,21030.83984,2103084.0,False,Compliant,142.39,0.75,112,1
98,147,2016,NonResidential,Hospital,Swedish Ballard,5300 Tallman Ave NW,Seattle,WA,98107.0,2767703875,6,BALLARD,47.66737,-122.37956,4.0,5,285333,0,285333,"Hospital (General Medical & Surgical), Parking",Hospital (General Medical & Surgical),302661.0,Parking,148865.0,14.0,225.0,157.3000031,479.5,251.8000031,68090728.0,47602720.0,0.0,10327434.0,35237205.0,328535.125,32853512.0,False,Compliant,1990.5,6.98,62,1
99,148,2016,SPS-District K-12,K-12 School,West Woodland Elementary,5601 4th Ave. N.W.,Seattle,WA,98107.0,2768000375,6,Ballard,47.6706,-122.36225,1.0,2,55513,0,55513,K-12 School,K-12 School,59097.0,,,93.0,25.60000038,27.10000038,80.40000153,85.0,1513570.75,1598852.625,0.0,443602.1875,1513571.0,0.0,0.0,True,Error - Correct Default Data,10.55,0.19,25,0
102,168,2016,NonResidential,Hotel,Hampton Inn Seattle Center,700 5th Ave N.,Seattle,WA,98109.0,5458300285,7,MAGNOLIA / QUEEN ANNE,47.62614,-122.3467,1.0,4,162222,14200,148022,"Hotel, Parking",Hotel,113702.0,Parking,32692.0,76.0,69.90000153,70.5,150.5,151.1999969,7946961.0,8016521.0,0.0,1230205.625,4197462.0,37494.98828,3749499.0,False,Compliant,228.4,1.41,20,1
103,169,2016,SPS-District K-12,K-12 School,Franklin High,3013 S. Mt. Baker Blvd.,Seattle,WA,98144.0,5700000455,2,SOUTHEAST,47.57589,-122.29365,1.0,4,289588,0,289588,K-12 School,K-12 School,289588.0,,,90.0,30.5,33.0,78.5,82.30000305,8819852.0,9542598.0,0.0,1890317.75,6449764.0,23700.86328,2370086.0,True,Error - Correct Default Data,170.84,0.59,26,1
108,175,2016,SPS-District K-12,K-12 School,Garfield High,400 23rd Ave.,Seattle,WA,98122.0,6840701230,3,CENTRAL,47.60598,-122.30156,1.0,3,254523,0,254523,K-12 School,K-12 School,254523.0,,,60.0,53.29999924,58.20000076,120.3000031,126.3000031,13567774.0,14810159.0,0.0,2296326.25,7835065.0,57327.08203,5732708.0,True,Error - Correct Default Data,359.09,1.41,8,1
109,176,2016,SPS-District K-12,K-12 School,Emerson Elementary,9709 60th Ave. S.,Seattle,WA,98118.0,7129302300,2,SOUTHEAST,47.51482,-122.25864,1.0,3,78804,0,78804,K-12 School,K-12 School,78804.0,,,92.0,31.70000076,34.0,76.90000153,79.30000305,2499140.0,2677620.75,0.0,482184.6875,1645214.0,8539.256836,853926.0,True,Error - Correct Default Data,56.82,0.72,15,1
110,177,2016,SPS-District K-12,K-12 School,Madrona K-8,1121 33rd Ave.,Seattle,WA,98122.0,7152200350,3,CENTRAL,47.61224,-122.29087,1.0,3,66994,0,66994,K-12 School,K-12 School,66994.0,,,79.0,35.40000153,38.5,94.09999847,99.59999847,2371304.5,2579774.5,0.0,534831.5,1824845.0,5464.591797,546459.0,True,Error - Correct Default Data,41.74,0.62,14,1
111,178,2016,SPS-District K-12,K-12 School,Van Asselt Elementary,8311 Beacon Ave S,Seattle,WA,98118.0,7243500230,2,GREATER DUWAMISH,47.52915,-122.28904,1.0,3,98357,0,98357,K-12 School,K-12 School,98357.0,,,88.0,35.09999847,38.5,77.80000305,81.30000305,3456131.5,3783580.25,0.0,564791.125,1927067.0,15290.64063,1529064.0,True,Error - Correct Default Data,94.64,0.96,16,1
115,183,2016,NonResidential,Residence Hall,Emerson Hall,500 W. Emerson,Seattle,WA,98119.0,7443000375,7,MAGNOLIA / QUEEN ANNE,47.65068,-122.36331,1.0,4,139600,37500,102100,Residence Hall/Dormitory,Residence Hall/Dormitory,135520.0,,,89.0,32.79999924,35.40000153,70.19999695,74.69999695,4448582.5,4800620.5,0.0,678868.1875,2316298.0,21322.83984,2132284.0,False,Compliant,129.39,0.93,15,1
116,185,2016,SPS-District K-12,K-12 School,Nathan Hale High,17050 30th Ave. N.E.,Seattle,WA,98125.0,2826049152,5,NORTH,47.70763,-122.29453,1.0,2,236758,0,236758,"K-12 School, Parking",K-12 School,238550.0,Parking,0.0,96.0,35.0,38.90000153,78.69999695,84.40000153,8355988.5,9287467.0,0.0,1403853.5,4789948.0,35660.39453,3566039.0,False,Compliant,222.78,0.94,5,1
118,189,2016,SPS-District K-12,K-12 School,Greenwood Elementary,144 N.W. 80th St.,Seattle,WA,98117.0,2919200635,6,NORTHWEST,47.68725,-122.35996,1.0,3,62526,0,62526,K-12 School,K-12 School,62526.0,,,96.0,31.79999924,35.09999847,70.59999847,75.30000305,1986094.875,2192411.0,0.0,326608.6875,1114389.0,8717.058594,871706.0,True,Error - Correct Default Data,54.07,0.86,14,1
120,190,2016,NonResidential,Small- and Mid-Sized Office,Emerald Services,7343 E Marginal Way S,Seattle,WA,98108.0,2924049043,2,GREATER DUWAMISH,47.536,-122.31768,1.0,3,64015,0,64015,"Non-Refrigerated Warehouse, Office, Other - Services",Office,30000.0,Non-Refrigerated Warehouse,15000.0,21.0,60.0,62.5,165.8000031,168.3999939,3242077.75,3375016.25,0.0,778834.0,2657382.0,5846.959961,584696.0,False,Compliant,49.58,0.77,9,1
121,194,2016,NonResidential,Retail Store,Northgate Mall,401 Northgate Way,Seattle,WA,98125.0,2926049025,5,NORTH,47.70759,-122.3255,1.0,1,530039,0,530039,"Restaurant, Retail Store",Retail Store,505103.0,Restaurant,24936.0,98.0,52.29999924,54.29999924,118.9000015,121.0,27717034.0,28763498.0,0.0,4755137.5,16224529.0,114925.0313,11492503.0,False,Compliant,723.47,1.36,65,1
123,197,2016,NonResidential,Retail Store,Nordstrom Northgate 002,401 NE Northgate Way,Seattle,WA,98125.0,2926049528,5,NORTH,47.70619,-122.32586,1.0,4,124342,0,124342,Retail Store,Retail Store,122000.0,,,76.0,71.90000153,71.59999847,223.6999969,222.1000061,8765978.0,8729918.0,0.0,2536231.25,8653621.0,1123.560059,112356.0,False,Compliant,66.3,0.53,51,1
124,198,2016,NonResidential,Hospital,Seattle Children's Hospital Main Campus,4800 Sand Point Way NE,Seattle,WA,98105.0,2982800005,4,NORTHEAST,47.66231,-122.28146,6.0,10,879000,0,879000,Hospital (General Medical & Surgical),Hospital (General Medical & Surgical),879000.0,,,10.0,288.7999878,293.2000122,578.2000122,576.5999756,253832464.0,257764208.0,0.0,33892500.0,115641210.0,1381912.375,138191238.0,False,Compliant,8145.52,9.27,63,1
125,200,2016,NonResidential,Other,Verity Credit Union,11027 Meridian N #102,Seattle,WA,98133.0,3026049024,5,NORTHWEST,47.70956,-122.3345,1.0,3,55442,0,55442,"Financial Office, Medical Office, Parking",Financial Office,28636.0,Parking,15385.0,72.0,85.59999847,88.90000153,194.1000061,197.6000061,3191228.25,3313397.0,0.0,544942.8125,1859345.0,13318.83008,1331883.0,False,Compliant,83.7,1.51,20,1
126,205,2016,SPS-District K-12,K-12 School,Ballard High,1418 N.W. 65th St.,Seattle,WA,98117.0,3050700050,6,BALLARD,47.67661,-122.37489,1.0,2,242795,0,242795,K-12 School,K-12 School,242795.0,,,80.0,37.70000076,40.0,107.3000031,112.3000031,9157150.0,9708318.0,0.0,2303477.0,7859464.0,12976.84766,1297685.0,True,Error - Correct Default Data,123.71,0.51,17,1
129,212,2016,SPS-District K-12,K-12 School,Aki Kurose Middle,3928 S. Graham St.,Seattle,WA,98118.0,3332501090,2,SOUTHEAST,47.54632,-122.28198,1.0,2,173185,0,173185,K-12 School,K-12 School,173185.0,,,79.0,35.40000153,40.59999847,58.90000153,64.90000153,6127771.5,7034167.5,0.0,527763.0,1800727.0,43270.4375,4327044.0,True,Error - Correct Default Data,242.36,1.4,64,1
130,214,2016,SPS-District K-12,K-12 School,Boren Building,5950 Delridge Way S.W.,Seattle,WA,98106.0,3438501230,1,DELRIDGE,47.54862,-122.36214,1.0,1,145341,0,145341,K-12 School,K-12 School,139069.0,,,75.0,39.5,45.59999847,69.5,77.19999695,5499097.0,6337972.0,0.0,546590.625,1864967.0,36341.29688,3634130.0,True,Error - Correct Default Data,206.01,1.42,53,1
131,215,2016,NonResidential,Warehouse,Rainier Bottling Plant,5628 Airport Way South,Seattle,WA,98108.0,3466800065,2,GREATER DUWAMISH,47.55152,-122.31869,1.0,4,114297,0,114297,Non-Refrigerated Warehouse,Non-Refrigerated Warehouse,114297.0,,,61.0,18.39999962,21.10000038,36.0,39.70000076,2100097.75,2415462.5,0.0,267431.0,912475.0,11876.22949,1187623.0,False,Compliant,69.44,0.61,112,1
132,216,2016,SPS-District K-12,K-12 School,Rainier Beach High,8815 Seward Park Ave S.,Seattle,WA,98118.0,3524049149,2,SOUTHEAST,47.52407,-122.26586,1.0,2,184125,0,184125,K-12 School,K-12 School,184125.0,,,86.0,47.79999924,54.70000076,84.19999695,92.30000305,8800292.0,10067991.0,0.0,879209.3125,2999862.0,58004.30078,5800430.0,True,Error - Correct Default Data,328.97,1.79,56,1
134,220,2016,NonResidential,Warehouse,8109,4786 First Ave S,Seattle,WA,98134.0,3573700006,2,GREATER DUWAMISH,47.55901,-122.33328,1.0,1,234144,0,234144,Non-Refrigerated Warehouse,Non-Refrigerated Warehouse,234144.0,,,87.0,28.79999924,33.59999847,42.0,47.09999847,6744317.0,7874958.5,0.0,385937.0,1316817.0,54275.0,5427500.0,False,Compliant,297.43,1.27,79,1
135,223,2016,NonResidential,Retail Store,Westwood Village - Building A,2600 SW Barton St,Seattle,WA,98126.0,3624039009,1,DELRIDGE,47.52254,-122.36627,1.0,1,64984,0,64984,Retail Store,Retail Store,65425.0,,,72.0,45.0,46.09999847,130.6999969,130.6999969,2944296.25,3016373.5,0.0,766027.8125,2613687.0,3306.090088,330609.0,False,Compliant,35.78,0.55,50,1
136,224,2016,NonResidential,Retail Store,Westwood Village - Building B,2600 SW Barton St,Seattle,WA,98126.0,3624039009,1,DELRIDGE,47.52254,-122.36627,1.0,1,67745,0,67745,Retail Store,Retail Store,67782.0,,,37.0,136.1999969,141.5,223.8999939,227.3000031,9230223.0,9589728.0,0.0,769080.3125,2624102.0,66061.21094,6606121.0,False,Compliant,369.14,5.45,51,1
137,225,2016,SPS-District K-12,K-12 School,Denny/Sealth Campus,2601 SW Kenyon / 2600 SW Thistle,Seattle,WA,98126.0,3624039032,1,DELRIDGE,47.52915,-122.36511,1.0,2,367884,0,367884,K-12 School,K-12 School,367884.0,,,97.0,33.29999924,36.09999847,81.59999847,85.90000153,12265516.0,13279344.0,0.0,2404753.75,8205020.0,40604.95703,4060496.0,False,Compliant,272.85,0.74,6,1
138,226,2016,SPS-District K-12,K-12 School,Roxhill Elementary,9430 30th Ave. S.W.,Seattle,WA,98126.0,3624039057,1,DELRIDGE,47.51778,-122.37074,1.0,1,46797,0,46797,K-12 School,K-12 School,46797.0,,,86.0,44.40000153,50.90000153,82.19999695,91.5,2075891.0,2380144.5,0.0,233647.0938,797204.0,12786.87207,1278687.0,True,Error - Correct Default Data,73.47,1.57,58,1
141,229,2016,SPS-District K-12,K-12 School,Martin Luther King Jr. Elementary,6725 45th Ave S,Seattle,WA,98118.0,3812400550,2,SOUTHEAST,47.54174,-122.27691,1.0,2,67371,0,67371,K-12 School,K-12 School,67371.0,,,92.0,31.60000038,33.59999847,78.0,80.09999847,2128459.0,2260359.75,0.0,423604.5938,1445339.0,6831.19873,683120.0,True,Error - Correct Default Data,46.36,0.69,12,1
143,231,2016,SPS-District K-12,K-12 School,Hamilton International Middle,1610 N. 41st St.,Seattle,WA,98103.0,4083301505,4,LAKE UNION,47.65708,-122.33803,1.0,3,127776,0,127776,K-12 School,K-12 School,127776.0,,,75.0,37.20000076,39.09999847,100.0,103.5,4748137.0,4998584.5,0.0,1093179.875,3729930.0,10182.06738,1018207.0,True,Error - Correct Default Data,80.08,0.63,6,1
144,232,2016,NonResidential,Hotel,Silver Cloud Inn,1150 Fairview Ave N,Seattle,WA,98109.0,4088802955,3,LAKE UNION,47.62972,-122.32906,1.0,5,123920,30000,93920,"Hotel, Parking, Swimming Pool",Hotel,123920.0,Parking,30000.0,79.0,75.59999847,78.09999847,148.1999969,152.1999969,9373179.0,9676783.0,0.0,1195550.25,4079217.0,52939.60938,5293961.0,False,Compliant,309.6,2.5,18,1
147,235,2016,NonResidential,Hotel,311jk-Seattle Downtown/Lake Union CY,925 Westlake Ave North,Seattle,WA,98109.0,4088803586,7,MAGNOLIA / QUEEN ANNE,47.62782,-122.34045,1.0,7,207656,54341,153315,Hotel,Hotel,141591.0,,,76.0,78.90000153,83.0,164.5,171.3999939,11171988.0,11754087.0,0.0,1620980.875,5530787.0,56412.00391,5641200.0,False,Compliant,338.16,1.63,18,1
148,237,2016,SPS-District K-12,K-12 School,Whittier Elementary,1320 NW 75th St.,Seattle,WA,98117.0,4240400005,6,BALLARD,47.68359,-122.37308,1.0,2,67235,0,67235,K-12 School,K-12 School,67235.0,,,89.0,34.0,36.29999924,84.30000305,86.80000305,2284133.75,2443194.0,0.0,458595.4063,1564728.0,7194.061523,719406.0,True,Error - Correct Default Data,49.12,0.73,17,1
150,239,2016,SPS-District K-12,K-12 School,Gatewood Elementary,4320 SW Myrtle,Seattle,WA,98136.0,4315700020,1,SOUTHWEST,47.54025,-122.3885,1.0,3,58118,0,58118,K-12 School,K-12 School,59014.0,,,97.0,23.79999924,25.70000076,66.09999847,69.59999847,1407277.25,1519074.75,0.0,339524.3125,1158457.0,2488.200928,248820.0,True,Error - Correct Default Data,21.29,0.37,25,1
151,241,2016,NonResidential,Hotel,Hotel Nexus,2140 N. Northgate Way,Seattle,WA,98133.0,4468400005,5,NORTHWEST,47.70916,-122.33216,1.0,4,64893,0,64893,Hotel,Hotel,64893.0,,,70.0,95.5,95.69999695,184.6999969,185.3999939,6197825.0,6211749.5,0.0,768038.625,2620548.0,35772.76953,3577277.0,False,Compliant,208.26,3.21,48,1
153,243,2016,SPS-District K-12,K-12 School,Van Asselt Building - Old,7201 Beacon Ave. S.,Seattle,WA,98108.0,5129000050,2,GREATER DUWAMISH,47.53809,-122.29591,1.0,1,70762,0,70762,K-12 School,K-12 School,70762.0,,,87.0,51.0,58.5,68.0,76.5,3606416.0,4138032.75,0.0,143935.0,491106.0,31153.0957,3115310.0,True,Error - Correct Default Data,168.88,2.39,91,1
154,244,2016,NonResidential,Small- and Mid-Sized Office,Washington Park Building,76-80 S washington st,Seattle,WA,98104.0,5247800030,7,DOWNTOWN,47.60105,-122.33518,1.0,3,44558,0,44558,"Office, Restaurant, Self-Storage Facility",Office,34416.0,Self-Storage Facility,7672.0,78.0,37.59999847,38.59999847,101.3000031,103.6999969,1677002.25,1722053.0,0.0,386177.4063,1317637.0,3593.650146,359365.0,False,Compliant,28.27,0.63,116,1
159,250,2016,NonResidential,Hotel,Silver Cloud Hotel - Stadium,1046 1st Ave S,Seattle,WA,98134.0,7666206720,2,GREATER DUWAMISH,47.59269,-122.33372,1.0,9,168449,14567,153882,"Food Service, Hotel, Parking",Hotel,135006.0,Parking,20600.0,64.0,88.19999695,89.19999695,183.0,182.6999969,12726789.0,12871628.0,0.0,1826563.0,6232233.0,64945.55078,6494555.0,False,Compliant,388.37,2.31,11,1
160,257,2016,NonResidential,Warehouse,Harbor Island: Warehouse E - DNRP-SWD,3235 16TH AVE SW,Seattle,WA,98134.0,7666703020,1,GREATER DUWAMISH,47.57507,-122.35747,0.0,4,79600,0,79600,Non-Refrigerated Warehouse,Non-Refrigerated Warehouse,79600.0,,,34.0,30.29999924,30.29999924,95.09999847,95.09999847,2411402.25,2411402.25,0.0,706741.5,2411402.0,0.0,0.0,False,Compliant,16.81,0.21,100,0
161,260,2016,SPS-District K-12,K-12 School,Lincoln Building,4400 Interlake Ave N,Seattle,WA,98103.0,7821200700,4,LAKE UNION,47.65996,-122.33962,1.0,4,241066,0,241066,K-12 School,K-12 School,241066.0,,,79.0,32.29999924,36.90000153,60.79999924,66.19999695,7791957.0,8886716.0,0.0,907478.3125,3096316.0,46956.40625,4695641.0,True,Error - Correct Default Data,270.97,1.12,19,1
167,268,2016,NonResidential,Hospital,Swedish Cherry Hill,500 17th Ave,Seattle,WA,98122.0,7942600331,3,CENTRAL,47.60705,-122.30966,6.0,5,597519,0,597519,"Hospital (General Medical & Surgical), Parking",Hospital (General Medical & Surgical),601615.0,Parking,48607.0,34.0,238.3999939,244.8000031,454.3999939,459.2000122,143423024.0,147299056.0,0.0,17220084.0,58754927.0,846680.9375,84668094.0,False,Compliant,4906.33,8.21,26,1
168,273,2016,SPS-District K-12,K-12 School,Highland Park Elementary,1012 S.W. Trenton St.,Seattle,WA,98106.0,7972603210,1,DELRIDGE,47.52518,-122.34828,1.0,1,71714,0,71714,K-12 School,K-12 School,71714.0,,,87.0,33.09999847,34.5,91.40000153,93.90000153,2371358.0,2470597.75,0.0,569817.125,1944216.0,4271.419434,427142.0,True,Error - Correct Default Data,36.24,0.51,17,1
169,274,2016,NonResidential,Warehouse,27020-Seattle / Stone Way North,3600 Stone Way North,Seattle,WA,98103.0,8033700250,4,LAKE UNION,47.65097,-122.34227,1.0,3,75397,8161,67236,"Non-Refrigerated Warehouse, Parking",Non-Refrigerated Warehouse,67236.0,Parking,8161.0,91.0,8.199999809,8.5,21.70000076,22.10000038,549181.375,571637.5,0.0,124086.0,423381.0,1258.0,125800.0,False,Compliant,9.63,0.13,25,1
170,276,2016,NonResidential,Hospital,Harborview Medical Center,325 9th Ave.,Seattle,WA,98104.0,8590900220,3,EAST,47.60399,-122.32377,9.0,8,1158691,0,1158691,"Hospital (General Medical & Surgical), Parking",Hospital (General Medical & Surgical),1350182.0,Parking,387651.0,29.0,217.1000061,219.6999969,502.8999939,502.7999878,293090784.0,296671744.0,122575032.0,49438336.0,168683602.0,18321.29102,1832129.0,False,Compliant,10734.57,9.26,16,1
172,279,2016,SPS-District K-12,K-12 School,West Seattle High,3000 California Ave SW,Seattle,WA,98116.0,8702100050,1,SOUTHWEST,47.57678,-122.38459,1.0,2,208981,0,208981,K-12 School,K-12 School,208981.0,,,80.0,39.09999847,43.20000076,90.0,95.19999695,8164853.0,9030149.0,0.0,1434598.625,4894851.0,32700.02148,3270002.0,True,Error - Correct Default Data,207.79,0.99,14,1
174,281,2016,NonResidential,K-12 School,University HTS Grade School,5031 University Way NE,Seattle,WA,98105.0,8816400900,4,NORTHEAST,47.66568,-122.31368,1.0,2,55653,0,55653,K-12 School,K-12 School,55500.0,,,98.0,24.79999924,28.79999924,26.29999924,30.5,1377627.0,1597907.25,0.0,1798.900024,6138.0,13714.89063,1371489.0,False,Compliant,72.88,1.31,88,1
175,282,2016,NonResidential,Hotel,Hotel Deca,4507 Brooklyn Ave NE,Seattle,WA,98105.0,8817400055,4,NORTHEAST,47.66151,-122.31457,1.0,16,106860,0,106860,Hotel,Hotel,106860.0,,,49.0,111.6999969,118.0999985,186.8999939,190.6999969,11935719.0,12616417.0,0.0,1043886.875,3561742.0,83739.75781,8373976.0,False,Compliant,469.57,4.39,85,1
176,283,2016,NonResidential,Small- and Mid-Sized Office,Lake City Center,12360 Lake City Way NE,Seattle,WA,98125.0,8822900465,5,NORTH,47.71895,-122.29475,1.0,5,50759,0,50759,"Office, Restaurant",Office,47079.0,Restaurant,3680.0,62.0,62.0,65.40000153,170.3999939,174.1000061,3147042.0,3321734.0,0.0,749863.125,2558533.0,5885.089844,588509.0,False,Compliant,49.09,0.97,44,1
177,284,2016,NonResidential,Worship Facility,University Congregational United Church of Christ,4505 16TH AVE NE,Seattle,WA,98105.0,8823902255,4,NORTHEAST,47.66182,-122.31113,1.0,2,56772,0,56772,Worship Facility,Worship Facility,56772.0,,,46.0,43.0,48.70000076,81.0,87.80000305,2439484.75,2762805.5,0.0,285789.1875,975113.0,14643.7207,1464372.0,False,Compliant,84.57,1.49,64,1
178,285,2016,NonResidential,Worship Facility,University Presbyterian Church,4540 15th Avenue NE,Seattle,WA,98105.0,8823902325,4,NORTHEAST,47.6626,-122.31164,1.0,3,103000,0,103000,Worship Facility,Worship Facility,103000.0,,,42.0,47.09999847,52.29999924,96.90000153,102.4000015,4854429.5,5391782.0,0.0,685356.0,2338435.0,25159.94531,2515995.0,False,Compliant,149.93,1.46,64,1
179,286,2016,SPS-District K-12,K-12 School,Roosevelt High,1410 N.E. 66th St.,Seattle,WA,98115.0,8826900005,4,NORTHEAST,47.67723,-122.31281,1.0,3,269297,0,269297,K-12 School,K-12 School,269297.0,,,80.0,39.0,41.59999847,96.80000305,99.59999847,10498344.0,11208195.0,0.0,2111361.25,7203965.0,32943.78516,3294379.0,True,Error - Correct Default Data,225.19,0.84,10,1
180,287,2016,SPS-District K-12,K-12 School,Bryant Elementary,3311 N.E. 60th,Seattle,WA,98115.0,8827900180,4,NORTHEAST,47.67184,-122.29221,1.0,3,75174,0,75174,K-12 School,K-12 School,75174.0,,,77.0,36.40000153,40.09999847,82.40000153,87.59999847,2733846.0,3011741.75,0.0,465868.5,1589543.0,11443.02246,1144302.0,True,Error - Correct Default Data,71.86,0.96,15,1
181,289,2016,SPS-District K-12,K-12 School,Frantz Coe Elementary,2424 7th Ave W.,Seattle,WA,98119.0,9270200005,7,MAGNOLIA / QUEEN ANNE,47.64052,-122.3656,1.0,3,75214,0,75214,K-12 School,K-12 School,75214.0,,,88.0,31.0,32.70000076,80.80000305,82.5,2334260.0,2457326.25,0.0,508113.9063,1733685.0,6005.752441,600575.0,True,Error - Correct Default Data,43.98,0.58,13,1
182,290,2016,SPS-District K-12,K-12 School,Madison Middle,3429 45th Ave. S.W.,Seattle,WA,98116.0,9278300005,1,SOUTHWEST,47.57298,-122.39028,1.0,3,134918,0,134918,K-12 School,K-12 School,134918.0,,,91.0,28.29999924,30.60000038,74.59999847,79.0,3822102.5,4135198.25,0.0,848506.625,2895105.0,9269.976563,926998.0,True,Error - Correct Default Data,69.42,0.51,11,1
183,291,2016,SPS-District K-12,K-12 School,Thurgood Marshall Elementary,2401 S. Irving St.,Seattle,WA,98144.0,9344400300,3,CENTRAL,47.59096,-122.29985,1.0,2,64414,0,64414,K-12 School,K-12 School,65310.0,,,67.0,35.09999847,37.59999847,110.3000031,117.9000015,2295176.5,2453255.5,0.0,672677.6875,2295176.0,0.0,0.0,True,Error - Correct Default Data,16.0,0.25,25,0
184,292,2016,SPS-District K-12,K-12 School,John Marshall Building,520 N.E. Ravenna Blvd.,Seattle,WA,98115.0,9528103775,6,NORTHWEST,47.67725,-122.32232,1.0,3,92437,0,92437,K-12 School,K-12 School,92437.0,,,78.0,50.0,57.09999847,74.40000153,81.90000153,4626443.0,5280739.0,0.0,283665.3125,967866.0,36585.76953,3658577.0,True,Error - Correct Default Data,201.05,2.17,89,1
186,294,2016,NonResidential,Residence Hall,Women's Residence at Seneca,1118 5th Avenue,Seattle,WA,98101.0,2301950000,7,DOWNTOWN,47.6079,-122.33266,1.0,9,107572,0,107572,"Office, Residence Hall/Dormitory, Retail Store",Residence Hall/Dormitory,63934.0,Office,27143.0,76.0,54.79999924,57.79999924,113.5,117.0999985,5572503.0,5879083.0,3076446.5,731552.1875,2496056.0,0.0,0.0,False,Compliant,254.87,2.37,103,0
191,300,2016,SPS-District K-12,K-12 School,Cleveland STEM High,5511 15th Ave. S.,Seattle,WA,98108.0,7549802085,2,GREATER DUWAMISH,47.55237,-122.31391,1.0,3,204961,0,204961,K-12 School,K-12 School,204961.0,,,94.0,40.0,43.59999847,88.09999847,92.0,8190809.0,8935423.0,0.0,1327293.75,4528726.0,36620.82031,3662082.0,True,Error - Correct Default Data,226.06,1.1,9,1
193,313,2016,NonResidential,Medical Office,BMR-201 Elliott Avenue LLC,201 Elliott Avenue West,Seattle,WA,98119.0,7666202190,7,MAGNOLIA / QUEEN ANNE,47.61972,-122.36033,1.0,5,190000,39000,151000,"Medical Office, Office",Medical Office,146741.0,Office,9805.0,1.0,183.5,183.5,443.0,443.0,28731502.0,28731502.0,0.0,5493974.5,18745441.0,99860.58594,9986059.0,False,Compliant,661.04,3.48,89,1
194,314,2016,NonResidential,Hotel,Edgewater Seattle,2411 Alaskan Way,Seattle,WA,98121.0,7666202317,7,DOWNTOWN,47.6124,-122.35075,1.0,4,122309,0,122309,Hotel,Hotel,122309.0,,,8.0,208.1000061,213.6000061,326.6000061,330.2999878,25453690.0,26122018.0,0.0,1853028.5,6322533.0,191311.5469,19131155.0,False,Compliant,1060.13,8.67,55,1
196,316,2016,NonResidential,Hotel,337v2-Seattle Waterfront Marriott,2100 Alaskan Way,Seattle,WA,98121.0,7666202345,7,DOWNTOWN,47.61069,-122.34653,1.0,8,254273,38800,215473,Hotel,Hotel,277000.0,,,29.0,96.19999695,96.90000153,204.8999939,205.0,26659244.0,26831896.0,0.0,4033863.5,13763542.0,128957.0,12895700.0,False,Compliant,780.84,3.07,13,1
199,319,2016,NonResidential,Small- and Mid-Sized Office,Daily Journal Building,83 Columbia St.,Seattle,WA,98104.0,7666202580,7,DOWNTOWN,47.60271,-122.33557,1.0,4,56500,0,56500,"Office, Retail Store",Office,33000.0,Retail Store,7000.0,98.0,34.5,37.5,84.5,88.09999847,1380293.625,1500938.5,492761.8125,260120.7031,887532.0,0.0,0.0,False,Compliant,44.22,0.78,102,0
200,320,2016,NonResidential,Warehouse,(ID320) BMW SEATTLE - SERVICE CENTER,900 MAYNARD AVE S,Seattle,WA,98134.0,7666202725,2,GREATER DUWAMISH,47.59486,-122.32455,1.0,4,203504,0,203504,"Non-Refrigerated Warehouse, Other - Services",Non-Refrigerated Warehouse,159372.0,Other - Services,44132.0,72.0,18.60000038,19.39999962,58.40000153,60.90000153,3785282.5,3944732.0,0.0,1109402.75,3785282.0,0.0,0.0,False,Compliant,26.39,0.13,8,0
201,322,2016,NonResidential,Large Office,Cox Media Group Seattle KIRO TV (322),2801 3rd Ave,Seattle,WA,98121.0,0656000005,7,DOWNTOWN,47.61757,-122.35122,0.0,3,100734,26731,74003,Office,Office,100734.0,,,20.0,97.19999695,98.19999695,305.1000061,308.3999939,9788717.0,9892566.0,0.0,2868908.5,9788716.0,0.0,0.0,False,Compliant,68.24,0.68,48,0
202,323,2016,NonResidential,Small- and Mid-Sized Office,200 Cedar Street Building,200 Cedar Street,Seattle,WA,98121.0,0656000045,7,DOWNTOWN,47.61703,-122.35012,1.0,4,77662,18504,59158,"Office, Parking",Office,62108.0,Parking,17570.0,57.0,80.59999847,83.19999695,228.8999939,230.5,5007401.0,5168686.5,0.0,1256184.75,4286102.0,7212.97998,721298.0,False,Compliant,68.19,0.88,35,1
203,324,2016,NonResidential,Large Office,Fourth and Battery,2401 Fourth Avenue,Seattle,WA,98121.0,0656000480,7,DOWNTOWN,47.61619,-122.34599,1.0,12,234000,21790,212210,"Financial Office, Laboratory, Office, Parking",Office,173786.0,Laboratory,29865.0,39.0,89.40000153,90.09999847,276.6000061,277.3999939,18661606.0,18811322.0,0.0,5347641.0,18246151.0,4154.516113,415452.0,False,Compliant,149.27,0.64,38,1
204,326,2016,NonResidential,Large Office,Westlake Tower,1601 5th Avenue,Seattle,WA,98101.0,9301500000,7,DOWNTOWN,47.61217,-122.33694,1.0,25,369996,0,369996,"Office, Parking",Office,383942.0,Parking,127192.0,74.0,64.5,64.5,202.5,202.5,24755086.0,24755086.0,0.0,7255300.0,24755084.0,0.0,0.0,False,Compliant,172.58,0.47,27,0
205,327,2016,NonResidential,Retail Store,Nordstrom 001,500 Pine Street,Seattle,WA,98101.0,0659000070,7,DOWNTOWN,47.61229,-122.33629,1.0,10,693450,0,693450,"Office, Retail Store",Retail Store,361107.0,Office,332343.0,93.0,57.79999924,57.70000076,173.6999969,173.6000061,40062888.0,40037736.0,21230.80078,10989762.0,37497068.0,25445.83984,2544584.0,False,Compliant,398.19,0.57,91,1
206,328,2016,NonResidential,Large Office,1600 Seventh,1600 7th Ave,Seattle,WA,98191.0,0659000165,7,DOWNTOWN,47.61316,-122.3343,1.0,33,791396,0,791396,"Lifestyle Center, Office, Other, Parking, Restaurant",Office,622034.0,Parking,132465.0,89.0,60.29999924,62.40000153,189.5,195.8999939,40847752.0,42227404.0,0.0,11969413.0,40839637.0,5382.505371,538251.0,False,Compliant,313.3,0.4,40,1
207,329,2016,NonResidential,Large Office,1700 Seventh Ave,1700 Seventh,Seattle,WA,98101.0,0659000235,7,DOWNTOWN,47.61399,-122.33523,1.0,23,747747,205076,542671,"Office, Parking, Restaurant",Office,542461.0,Parking,219045.0,90.0,56.20000076,57.40000153,164.6000061,168.6000061,30985420.0,31693704.0,0.0,8172315.0,27883939.0,31014.76953,3101477.0,False,Compliant,359.11,0.48,16,1
208,330,2016,NonResidential,Small- and Mid-Sized Office,Lloyd building,603 Stewart Street,Seattle,WA,98101.0,0659000350,7,DOWNTOWN,47.61356,-122.33665,1.0,10,63409,7757,55652,"Office, Retail Store",Office,45260.0,Retail Store,6187.0,90.0,66.90000153,74.40000153,131.6999969,140.6000061,3444270.0,3826622.5,2086424.75,397961.5938,1357845.0,0.0,0.0,False,Compliant,170.51,2.69,90,0
209,331,2016,NonResidential,Large Office,The Tower Building,1809 7th Ave,Seattle,WA,98101.0,0659000365,7,DOWNTOWN,47.61375,-122.33566,1.0,17,204790,30000,174790,"Office, Other - Recreation, Parking, Retail Store",Office,142034.0,Other - Recreation,17070.0,91.0,44.5,46.5,127.8000031,130.1000061,7739699.0,8081443.0,0.0,1974231.0,6736076.0,10036.21973,1003622.0,False,Compliant,100.26,0.49,86,1
210,332,2016,NonResidential,Small- and Mid-Sized Office,Times Square Building,414 Olive Street,Seattle,WA,98101.0,0659000385,7,DOWNTOWN,47.61256,-122.33808,1.0,5,73399,0,73399,"Office, Retail Store",Office,51557.0,Retail Store,9976.0,61.0,61.09999847,64.90000153,191.6999969,203.6999969,3757006.0,3992167.75,0.0,1101115.25,3757005.0,0.0,0.0,False,Compliant,26.19,0.36,100,0
211,333,2016,NonResidential,Large Office,Plaza 600,600 Stewart Street,Seattle,WA,98101.0,0659000555,7,DOWNTOWN,47.61391,-122.33725,1.0,20,265851,32334,233517,"Office, Parking",Office,226454.0,Parking,29214.0,90.0,64.59999847,69.5,146.6999969,151.8000031,14633233.0,15742790.0,6568832.0,2363540.25,8064399.0,0.0,0.0,False,Compliant,563.25,2.12,47,0
212,334,2016,NonResidential,Large Office,West 8th,2001 - 8th Avenue,Seattle,WA,98121.0,0659000750,7,DOWNTOWN,47.61578,-122.33726,1.0,25,758043,228668,529375,"Office, Parking",Office,582725.0,Parking,191082.0,95.0,46.40000153,46.40000153,142.3999939,142.3999939,27018020.0,27018020.0,0.0,7658746.5,26131643.0,8863.726563,886373.0,False,Compliant,229.25,0.3,7,1
213,335,2016,NonResidential,Large Office,Denny Building,2200 Sixth Avenue,Seattle,WA,98121.0,0660000080,7,DOWNTOWN,47.61641,-122.34112,1.0,12,206000,0,206000,"Office, Parking",Office,161000.0,Parking,51250.0,91.0,53.29999924,56.40000153,139.5,142.5,8580279.0,9075988.0,2312496.75,1836981.625,6267781.0,0.0,0.0,False,Compliant,222.19,1.08,48,0
214,336,2016,NonResidential,Large Office,1918 Eighth Avenue,1918 Eighth Avenue,Seattle,WA,98101.0,0660000650,7,DOWNTOWN,47.61555,-122.33582,1.0,36,824887,154972,669915,"Office, Parking",Office,743562.0,Parking,161119.0,97.0,53.20000076,52.90000153,166.8999939,166.1999969,39523852.0,39360016.0,0.0,11583777.0,39523847.0,0.0,0.0,False,Compliant,275.54,0.33,7,0
215,337,2016,NonResidential,Large Office,1800 Ninth,1800 9th Avenue,Seattle,WA,98101.0,0660001135,7,DOWNTOWN,47.61516,-122.33303,1.0,16,480840,141600,339240,"Fitness Center/Health Club/Gym, Office, Other, Parking, Restaurant",Office,311736.0,Parking,123356.0,94.0,52.70000076,54.40000153,164.6000061,170.1000061,17867002.0,18468776.0,0.0,5197326.0,17733276.0,1337.241333,133724.0,False,Compliant,130.73,0.27,26,1
216,339,2016,NonResidential,Small- and Mid-Sized Office,Broderick Building,615 2nd Avenue,Seattle,WA,98104.0,0939000130,7,DOWNTOWN,47.60266,-122.33332,1.0,7,89550,0,89550,"Office, Retail Store, Social/Meeting Hall",Office,64712.0,Retail Store,10058.0,85.0,47.70000076,50.59999847,141.6000061,148.8000031,3903259.75,4135330.5,348386.8125,1041873.5,3554872.0,0.0,0.0,False,Compliant,51.67,0.58,116,0
217,340,2016,NonResidential,Small- and Mid-Sized Office,The Pioneer Building,600 First Ave,Seattle,WA,98104.0,0939000150,7,DOWNTOWN,47.60219,-122.33347,1.0,6,89355,0,89355,"Office, Retail Store",Office,82355.0,Retail Store,7000.0,66.0,46.79999924,46.90000153,145.3999939,145.5,4178233.5,4188308.75,0.0,1206506.75,4116601.0,616.3200073,61632.0,False,Compliant,31.97,0.36,116,1
218,341,2016,NonResidential,Large Office,Dexter Horton Building,710 2nd Avenue,Seattle,WA,98104.0,0939000260,7,DOWNTOWN,47.6036,-122.33288,1.0,15,388934,0,388934,Office,Office,388934.0,,,89.0,47.79999924,48.79999924,144.0,145.3000031,18576900.0,18982748.0,1192343.75,5095121.0,17384553.0,0.0,0.0,False,Compliant,213.23,0.55,94,0
219,342,2016,NonResidential,Large Office,Seattle Exchange Building,821 2nd ave,Seattle,WA,98104.0,0939000335,7,DOWNTOWN,47.60403,-122.33497,1.0,22,384302,0,384302,"Convenience Store without Gas Station, Food Service, Office",Office,348969.0,Convenience Store without Gas Station,3291.899902,98.0,28.39999962,29.60000038,89.30000305,93.0,10062436.0,10471812.0,0.0,2949131.0,10062435.0,0.0,0.0,False,Compliant,70.15,0.18,87,0
220,343,2016,NonResidential,Large Office,Norton Building,801 2nd Ave Suite 1300,Seattle,WA,98104.0,0939000355,7,DOWNTOWN,47.6037,-122.33447,1.0,17,378525,84600,293925,"Office, Parking",Office,236827.0,Parking,83311.0,69.0,105.1999969,0.0,240.8999939,0.0,24906132.0,0.0,10921066.0,4098787.75,13985064.0,0.0,0.0,False,Compliant,940.47,2.48,58,0
221,345,2016,NonResidential,Large Office,999 Third Avenue,"999 3rd Avenue, Suite 1550",Seattle,WA,98104.0,0939000435,7,DOWNTOWN,47.60505,-122.33427,1.0,47,1323055,0,1323055,"Office, Parking, Restaurant",Office,1011135.0,Parking,272682.0,94.0,42.59999847,42.59999847,133.5,133.5,44683660.0,44683660.0,0.0,13048606.0,44521844.0,1618.117065,161812.0,False,Compliant,318.97,0.24,33,1
222,346,2016,NonResidential,Large Office,1000 Second Avenue,1000 Second Avenue,Seattle,WA,98104.0,0939000475,7,DOWNTOWN,47.60567,-122.33511,1.0,41,589921,129432,460489,"Office, Parking, Pre-school/Daycare",Office,470416.0,Parking,107667.0,84.0,51.20000076,51.20000076,160.6999969,160.6999969,24603420.0,24603420.0,0.0,7210849.0,24603417.0,0.0,0.0,False,Compliant,171.52,0.29,30,0
224,348,2016,NonResidential,Large Office,1101 Second Avenue (HOB),1101 2nd Avenue,Seattle,WA,98101.0,0942000025,7,DOWNTOWN,47.60581,-122.33664,1.0,8,157941,62993,94948,"Office, Parking",Office,84838.0,Parking,15401.0,81.0,44.09999847,44.09999847,138.5,138.5,3743228.5,3743228.5,0.0,1097077.25,3743228.0,0.0,0.0,False,Compliant,26.1,0.17,48,0
225,349,2016,NonResidential,Large Office,2nd and Seneca,1191 2nd Avenue,Seattle,WA,98101.0,0942000030,7,DOWNTOWN,47.60614,-122.33674,1.0,29,635303,197231,438072,"Office, Parking",Office,522667.0,Parking,194435.0,95.0,34.90000153,35.90000153,108.8000031,111.9000015,18221224.0,18754466.0,180731.7969,5287365.0,18040489.0,0.0,0.0,False,Compliant,139.72,0.22,25,0
227,351,2016,NonResidential,Large Office,1111 Third Avenue,1111 3rd Ave Suite 310,Seattle,WA,98101.0,0942000050,7,DOWNTOWN,47.60655,-122.33533,1.0,34,776762,162604,614158,"Office, Parking",Office,606050.0,Parking,154947.0,81.0,53.70000076,53.79999924,168.3000031,168.3999939,32552428.0,32577050.0,0.0,9512705.0,32457349.0,950.7598877,95076.0,False,Compliant,231.32,0.3,36,1
228,352,2016,NonResidential,Large Office,Abraham Lincoln Building (Wallysons Inc),1110 Third Avenue,Seattle,WA,98101.0,0942000140,7,DOWNTOWN,47.60671,-122.33456,1.0,14,186768,23775,162993,"Data Center, Office, Parking",Office,182540.0,Parking,33671.0,95.0,52.70000076,53.90000153,142.8000031,143.1000061,9641043.0,9843217.0,2154977.5,2194040.0,7486064.0,0.0,0.0,False,Compliant,218.53,1.17,44,0
229,353,2016,NonResidential,Large Office,Safeco Plaza,1001 Fourth Avenue,Seattle,WA,98154.0,0942000300,7,DOWNTOWN,47.60615,-122.33388,1.0,49,1123435,368980,754455,"Financial Office, Food Sales, Office, Other, Parking",Office,808980.0,Parking,232248.0,89.0,52.70000076,55.5,149.0,154.6999969,45163308.0,47518124.0,0.0,11248209.0,38378889.0,67844.14844,6784415.0,False,Compliant,627.87,0.56,47,1
230,354,2016,NonResidential,Large Office,Fourth & Madison,925 Fourth Avenue,Seattle,WA,98104.0,0942000345,7,DOWNTOWN,47.60549,-122.33319,1.0,37,1052469,164420,888049,"Convenience Store without Gas Station, Data Center, Financial Office, Fitness Center/Health Club/Gym, Office, Other, Parking, Personal Services (Health/Beauty, Dry Cleaning, etc), Restaurant",Office,765351.0,Parking,185581.0,93.0,46.29999924,47.20000076,145.3000031,148.3000031,41213584.0,42071712.0,0.0,12079009.0,41213579.0,0.0,0.0,False,Compliant,287.32,0.27,14,0
231,355,2016,NonResidential,Large Office,901 Fifth Avenue,901 Fifth Avenue,Seattle,WA,98164.0,0942000365,7,DOWNTOWN,47.60616,-122.33165,1.0,42,617684,171500,446184,"Financial Office, Office, Parking, Retail Store",Office,581558.0,Parking,189600.0,28.0,115.9000015,119.4000015,361.2000122,372.0,69519808.0,71568952.0,882983.5,20116302.0,68636822.0,0.0,0.0,False,Compliant,546.65,0.88,43,0
232,356,2016,NonResidential,Large Office,The Central Building,810 Third Avenue,Seattle,WA,98104.0,0942000550,7,DOWNTOWN,47.60471,-122.33261,1.0,8,201480,0,201480,"Non-Refrigerated Warehouse, Office, Retail Store",Office,161762.0,Retail Store,29094.0,91.0,44.29999924,47.20000076,123.5,129.3999939,8921778.0,9510490.0,1619966.875,2140038.0,7301810.0,0.0,0.0,False,Compliant,175.95,0.87,109,0
233,357,2016,Nonresidential COS,Large Office,Seattle Municipal Tower (2030),700 Fifth Avenue,Seattle,WA,98104.0,0942000720,3,DOWNTOWN,47.60501,-122.32988,1.0,63,1354987,159600,1195387,"Office, Parking",Office,1191115.0,Parking,159599.0,89.0,50.40000153,50.40000153,158.1000061,158.1000061,61576184.0,61576184.0,0.0,18046946.0,61576180.0,0.0,0.0,False,Compliant,429.27,0.32,26,0
235,359,2016,Nonresidential COS,Large Office,City Hall,600 4th Ave,Seattle,WA,98104.0,0942000810,7,DOWNTOWN,47.60377,-122.32971,1.0,8,199530,30660,168870,"Office, Other, Parking, Restaurant",Office,160418.0,Parking,18590.0,69.0,73.19999695,77.40000153,178.1000061,181.0,13214416.0,13972700.0,0.0,2561244.0,8738965.0,44754.50781,4475451.0,False,Compliant,298.61,1.5,13,1
236,360,2016,NonResidential,Large Office,Chinook Building,401 Fifth Ave.,Seattle,WA,98104.0,0942001105,7,DOWNTOWN,47.60249,-122.32854,1.0,13,372242,52703,319539,"Office, Parking",Office,319539.0,Parking,52703.0,98.0,43.29999924,43.40000153,119.0999985,116.9000015,13843866.0,13862720.0,0.0,3296889.25,11248986.0,25948.78125,2594878.0,False,Compliant,216.24,0.58,10,1
237,361,2016,NonResidential,Large Office,Yesler Building,400 YESLER WAY,Seattle,WA,98104.0,0942001150,7,DOWNTOWN,47.60193,-122.32812,1.0,7,114395,8296,106099,Office,Office,96582.0,,,99.0,28.39999962,30.79999924,65.40000153,67.80000305,2746560.75,2970604.25,0.0,480858.5,1640689.0,11058.71094,1105871.0,False,Compliant,70.17,0.61,107,1
238,363,2016,NonResidential,Retail Store,University Book Store,4326 University Way NE,Seattle,WA,98105.0,1142000075,4,NORTHEAST,47.66024,-122.31278,1.0,2,89200,0,89200,Retail Store,Retail Store,89200.0,,,83.0,72.40000153,75.19999695,204.8999939,206.8000031,6461937.0,6707359.5,0.0,1611701.375,5499125.0,9628.110352,962811.0,False,Compliant,89.47,1.0,38,1
239,364,2016,NonResidential,Large Office,UW Tower Bldg Complex,4333 Brooklyn Ave,Seattle,WA,98195.0,1142000280,4,NORTHEAST,47.66072,-122.31466,1.0,23,474546,0,474546,Office,Office,474546.0,,,77.0,60.0,63.20000076,188.3000031,198.5,28450436.0,29997380.0,0.0,8338345.0,28450433.0,0.0,0.0,False,Compliant,198.34,0.42,45,0
240,365,2016,NonResidential,Other,UW Tower Data Center,4333 BROOKLYN AVE NE,Seattle,WA,98185.0,1142000290,4,NORTHEAST,47.6606,-122.31512,1.0,5,36000,0,36000,Data Center,Data Center,36000.0,,,96.0,834.4000244,834.4000244,2620.0,2620.0,30038490.0,30038490.0,0.0,8803777.0,30038487.0,0.0,0.0,False,Compliant,209.41,5.82,47,0
241,366,2016,NonResidential,Small- and Mid-Sized Office,University District Office Buiding,1107 NE 45th St,Seattle,WA,98105.0,1142000500,4,NORTHEAST,47.661,-122.31626,0.0,5,99005,0,99005,Office,Office,79555.0,,,70.0,59.40000153,63.0,137.6000061,140.6999969,4728488.5,5008123.5,0.0,839159.3125,2863212.0,18652.76563,1865277.0,False,Compliant,119.03,1.2,55,1
242,367,2016,NonResidential,Large Office,4311 Roosevelt,4311 11th Avenue NE,Seattle,WA,98105.0,1142000530,4,NORTHEAST,47.66065,-122.31689,1.0,6,135051,44248,90803,"Office, Parking",Office,95943.0,Parking,42500.0,88.0,46.09999847,46.09999847,144.8999939,144.8999939,4426136.0,4426136.0,0.0,1297226.125,4426136.0,0.0,0.0,False,Compliant,30.86,0.23,14,0
243,368,2016,NonResidential,Large Office,4300 Roosevelt,4300 Roosevelt Way NE,Seattle,WA,98105.0,1142000550,4,NORTHEAST,47.65999,-122.31741,1.0,5,220649,82720,137929,"Office, Parking",Office,145754.0,Parking,90000.0,93.0,48.29999924,48.29999924,151.8000031,151.8000031,7046345.5,7046345.5,0.0,2065165.5,7046345.0,0.0,0.0,False,Compliant,49.12,0.22,14,0
245,370,2016,NonResidential,Large Office,Metropolitan Park West,1100 Olive Way,Seattle,WA,98101.0,0660002054,7,DOWNTOWN,47.61597,-122.33086,1.0,18,413715,64660,349055,"Office, Parking",Office,348270.0,Parking,69634.0,79.0,69.59999847,69.59999847,218.3999939,218.3999939,24224888.0,24224888.0,0.0,7099908.0,24224886.0,0.0,0.0,False,Compliant,168.88,0.41,36,0
246,371,2016,NonResidential,Mixed Use Property,METROPOLITAN PARK NORTH (ID371),1220 HOWELL ST,Seattle,WA,98101.0,0660002381,7,DOWNTOWN,47.6177,-122.3306,1.0,11,381381,195621,185760,"Fitness Center/Health Club/Gym, Office, Parking",Parking,182820.0,Office,164192.0,94.0,48.40000153,49.20000076,150.8999939,153.5,9765777.0,9944328.0,0.0,2834648.75,9671822.0,939.5400391,93954.0,False,Compliant,72.42,0.19,16,1
247,372,2016,NonResidential,Large Office,Metropolitan Park East,1730 Minor Avenue,Seattle,WA,98101.0,0660002410,7,DOWNTOWN,47.61695,-122.32965,1.0,20,497513,118744,378769,"Office, Parking",Office,367623.0,Parking,114510.0,65.0,73.0,0.0,227.8999939,0.0,26823218.0,0.0,0.0,7796691.0,26602310.0,2209.050049,220905.0,False,Compliant,197.19,0.4,28,1
248,373,2016,NonResidential,Large Office,Fourth and Blanchard,2101 Fourth Avenue,Seattle,WA,98121.0,0694000205,7,DOWNTOWN,47.61431,-122.34244,1.0,24,543876,116721,427155,"Office, Parking",Office,424044.0,Parking,107300.0,79.0,59.70000076,61.70000076,187.3999939,193.6000061,25307744.0,26144226.0,0.0,7417274.5,25307741.0,0.0,0.0,False,Compliant,176.43,0.32,37,0
250,375,2016,NonResidential,Large Office,Third and Broad,2901 Third Avenue,Seattle,WA,98121.0,0695000335,7,DOWNTOWN,47.6182,-122.352,1.0,6,396626,124216,272410,"Office, Parking",Office,274002.0,Parking,122624.0,64.0,74.30000305,73.59999847,233.3000031,231.1999969,20361158.0,20179120.0,0.0,5967513.5,20361156.0,0.0,0.0,False,Compliant,141.95,0.36,34,0
251,376,2016,NonResidential,Large Office,5th and Bell,2301 5th Ave,Seattle,WA,98121.0,0696000175,7,DOWNTOWN,47.61598,-122.34369,1.0,6,287471,83591,203880,"Office, Other, Other - Restaurant/Bar, Parking",Office,191814.0,Parking,72178.0,74.0,74.90000153,74.90000153,235.1000061,235.1000061,14913424.0,14913424.0,0.0,4370874.0,14913422.0,0.0,0.0,False,Compliant,103.97,0.36,14,0
252,377,2016,NonResidential,Large Office,Fifth and Wall LLC,521 Wall Street,Seattle,WA,98121.0,0697000064,7,DOWNTOWN,47.61734,-122.34434,1.0,3,192630,48512,144118,"Office, Parking",Office,146157.0,Parking,48199.0,94.0,36.70000076,38.09999847,112.4000015,117.0,5357833.0,5569686.0,0.0,1515135.25,5169641.0,1881.909668,188191.0,False,Compliant,46.03,0.24,69,1
253,379,2016,NonResidential,Large Office,3101 Western Avenue,3101 Western Avenue,Seattle,WA,98121.0,0698000040,7,DOWNTOWN,47.6176,-122.35686,1.0,8,253103,61986,191117,"Laboratory, Office, Other, Parking",Office,158681.0,Parking,70190.0,3.0,161.1999969,161.1999969,506.1000061,506.1000061,29949248.0,29949248.0,0.0,8777621.0,29949243.0,0.0,0.0,False,Compliant,208.79,0.82,32,0
254,381,2016,NonResidential,Supermarket / Grocery Store,70500872 -- Holman Road,9999 Holman Road NW,Seattle,WA,98117.0,0767000060,6,NORTHWEST,47.7019,-122.36374,1.0,1,60880,0,60880,Supermarket/Grocery Store,Supermarket/Grocery Store,61666.0,,,54.0,231.8000031,239.0,518.7999878,523.5999756,14293972.0,14736775.0,0.0,2381365.25,8125218.0,61687.52734,6168753.0,False,Compliant,384.27,6.31,60,1
255,382,2016,NonResidential,Small- and Mid-Sized Office,Collins Building,524 2nd Ave,Seattle,WA,98104.0,0939000025,7,DOWNTOWN,47.60227,-122.33202,1.0,5,50176,0,50176,"Office, Other, Restaurant",Office,50328.0,Other,8329.0,77.0,46.59999847,46.59999847,143.1999969,143.1999969,2933288.75,2933288.75,0.0,831375.875,2836654.0,966.3400269,96634.0,False,Compliant,24.91,0.5,116,1
256,383,2016,NonResidential,Large Office,Smith Tower,506 Second Avenue,Seattle,WA,98104.0,0939000060,7,DOWNTOWN,47.60198,-122.33174,1.0,42,304346,0,304346,"Office, Other - Restaurant/Bar, Retail Store, Single Family Home",Office,245028.0,Retail Store,8429.0,72.0,88.40000153,94.5,182.6000061,189.1000061,23262244.0,24880988.0,1014422.375,3294180.5,11239744.0,110080.7734,11008077.0,False,Compliant,741.3,2.44,104,1
257,384,2016,NonResidential,Warehouse,Dawn Food Products,6901 fox ave south,Seattle,WA,98108.0,0001800113,2,GREATER DUWAMISH,47.54066,-122.33023,1.0,1,128800,0,128800,"Non-Refrigerated Warehouse, Other",Non-Refrigerated Warehouse,119200.0,Other,9600.0,97.0,14.0,16.29999924,20.79999924,23.29999924,1809101.5,2098949.75,0.0,108982.8984,371850.0,14372.51855,1437252.0,False,Compliant,78.92,0.61,39,1
258,385,2016,NonResidential,Large Office,Skinner Building,1326 5th Avenue,Seattle,WA,98101.0,0002400002,7,DOWNTOWN,47.60932,-122.33388,1.0,8,321945,0,321945,"Office, Performing Arts, Retail Store",Office,166919.0,Performing Arts,39355.0,76.0,60.40000153,62.29999924,158.0,160.1999969,13656587.0,14072349.0,3700629.75,2917923.75,9955956.0,0.0,0.0,False,Compliant,355.05,1.1,89,0
259,386,2016,NonResidential,Large Office,IBM-COS,1200 5th avenue,Seattle,WA,98101.0,0002400002,7,DOWNTOWN,47.60842,-122.33305,1.0,22,336330,0,336330,"Office, Other - Restaurant/Bar, Parking",Office,256299.0,Parking,66430.0,77.0,71.90000153,74.80000305,182.6999969,186.1999969,18967014.0,19730534.0,5370612.0,3849416.0,13134207.0,4621.937012,462194.0,False,Compliant,530.66,1.58,52,1
260,387,2016,NonResidential,Large Office,Puget Sound Plaza,1325 4th Avenue,Seattle,WA,98101.0,0002400002,7,DOWNTOWN,47.60869,-122.33588,1.0,21,298426,0,298426,"Office, Other - Education, Parking",Office,286538.0,Parking,197750.0,79.0,90.69999695,95.69999695,202.1000061,206.8999939,27076922.0,28559888.0,12760971.0,4195765.0,14315950.0,0.0,0.0,False,Compliant,1084.79,3.64,56,0
261,388,2016,NonResidential,Large Office,Rainier Tower,1301 5th Ave,Seattle,WA,98101.0,0002400003,7,DOWNTOWN,47.60896,-122.33481,1.0,42,635824,0,635824,"Financial Office, Office, Other, Parking, Restaurant",Office,718473.0,Parking,40000.0,69.0,62.90000153,62.90000153,197.6000061,197.6000061,48479988.0,48479988.0,0.0,14208670.0,48479982.0,0.0,0.0,False,Compliant,337.97,0.53,40,0
262,389,2016,NonResidential,Hotel,Fairmont Olympic Seattle,411 University Street,Seattle,WA,98101.0,0002400003,7,DOWNTOWN,47.60804,-122.33391,1.0,12,542305,0,542305,"Hotel, Swimming Pool",Hotel,542305.0,Swimming Pool,0.0,45.0,104.1999969,105.1999969,210.1999969,209.3999939,56485204.0,57051236.0,28438884.0,7056889.5,24078107.0,39682.11328,3968211.0,False,Compliant,2573.75,4.75,93,1
263,390,2016,NonResidential,Retail Store,RAINIER ELECTRONICS LLC,2700 RAINIER AVE. S.,Seattle,WA,98144.0,0003600052,2,SOUTHEAST,47.57936,-122.29744,1.0,2,291940,0,291940,"Office, Retail Store",Retail Store,191940.0,Office,100000.0,80.0,40.0,41.40000153,113.1999969,113.9000015,11688601.0,12080064.0,0.0,2911448.0,9933861.0,17547.39063,1754739.0,False,Compliant,162.45,0.56,36,1
264,391,2016,NonResidential,Mixed Use Property,Thaw Building,8300 Military Rd South,Seattle,WA,98108.0,0007400015,2,GREATER DUWAMISH,47.52871,-122.29443,0.0,1,88400,0,88400,"Distribution Center, Non-Refrigerated Warehouse, Office",Non-Refrigerated Warehouse,33450.0,Office,29620.0,42.0,48.29999924,53.0,109.0,113.9000015,4383100.5,4811200.0,0.0,741693.375,2530658.0,18524.42188,1852442.0,False,Compliant,116.03,1.31,46,1
265,392,2016,NonResidential,Warehouse,Linden Bldg,910 N 137th St,Seattle,WA,98133.0,0164000120,5,NORTHWEST,47.72912,-122.34677,1.0,1,52311,0,52311,Non-Refrigerated Warehouse,Non-Refrigerated Warehouse,51116.0,,,96.0,18.20000076,21.70000076,19.79999924,23.5,930611.875,1109137.125,0.0,4913.5,16765.0,9138.469727,913847.0,False,Compliant,48.65,0.93,56,1
267,394,2016,NonResidential,Large Office,501 Eastlake Ave. (ID394) Republican Building,501 EASTLAKE AVE E,Seattle,WA,98109.0,0209000050,7,LAKE UNION,47.62333,-122.3296,1.0,5,176532,70067,106465,"Office, Parking",Office,103494.0,Parking,70067.0,60.0,56.09999847,56.09999847,176.1000061,176.1000061,5803409.0,5803409.0,0.0,1700881.75,5803409.0,0.0,0.0,False,Compliant,40.46,0.23,15,0
268,395,2016,NonResidential,Warehouse,Ferguson Terminal,4205 9th Ave NW,Seattle,WA,98107.0,0467000050,6,BALLARD,47.65825,-122.3683,1.0,1,52500,0,52500,"Non-Refrigerated Warehouse, Office",Non-Refrigerated Warehouse,49395.0,Office,5853.0,2.0,72.19999695,76.80000305,191.8000031,196.6000061,3989399.0,4243867.0,0.0,898234.875,3064777.0,9246.209961,924621.0,False,Compliant,70.47,1.34,43,1
269,396,2016,NonResidential,Warehouse,SBC396,5301 Shilshole Ave NW,Seattle,WA,98107.0,0467000420,6,BALLARD,47.66587,-122.38476,1.0,2,57300,0,57300,"Non-Refrigerated Warehouse, Office",Non-Refrigerated Warehouse,29001.0,Office,28299.0,55.0,79.59999847,88.90000153,151.1999969,161.0,4560492.0,5095134.5,0.0,543351.0,1853914.0,27065.78125,2706578.0,False,Compliant,156.67,2.73,57,1
270,398,2016,NonResidential,Large Office,2601 Elliott Avenue,2601 Elliott Avenue,Seattle,WA,98121.0,0653000250,7,DOWNTOWN,47.61429,-122.35263,1.0,6,350310,0,350310,"College/University, Office, Restaurant",Office,305233.0,College/University,26900.0,90.0,53.29999924,53.29999924,154.1999969,154.1999969,18102026.0,18102026.0,0.0,4681819.0,15974366.0,21276.56445,2127656.0,False,Compliant,224.36,0.64,100,1
271,399,2016,NonResidential,Large Office,1201 Third Avenue,1201 3rd ave,Seattle,WA,98101.0,1974700120,7,DOWNTOWN,47.60723,-122.33611,1.0,55,1400000,285000,1115000,"Office, Other, Parking, Restaurant",Office,994116.0,Parking,264481.0,92.0,46.70000076,48.5,140.1999969,145.3000031,53079164.0,55140300.0,2179487.75,14499658.0,49472833.0,14268.40039,1426840.0,False,Compliant,588.9,0.42,28,1
272,401,2016,NonResidential,Hotel,WAC aggregate,1325 6th Ave,Seattle,WA,98101.0,1975700025,7,DOWNTOWN,47.60968,-122.33379,1.0,21,305548,0,305548,Hotel,Hotel,310000.0,,,58.0,108.8000031,111.4000015,220.6000061,222.1999969,33729336.0,34527356.0,16284570.0,4272584.5,14578058.0,28667.04883,2866705.0,False,Compliant,1510.85,4.94,86,1
273,402,2016,NonResidential,Large Office,US Bank Centre,1420 5th Avenue,Seattle,WA,98101.0,1975700080,7,DOWNTOWN,47.61054,-122.33466,1.0,46,1536606,512608,1023998,"Financial Office, Office, Other, Parking, Restaurant, Retail Store",Office,1002403.0,Parking,377046.0,89.0,51.90000153,53.59999847,157.3000031,162.6999969,56606136.0,58506844.0,0.0,15729209.0,53668061.0,29380.69922,2938070.0,False,Compliant,530.18,0.35,27,1
274,403,2016,NonResidential,Large Office,Logan Building,500 Union St,Seattle,WA,98101.0,1975700095,7,DOWNTOWN,47.61003,-122.33452,1.0,10,135918,0,135918,Office,Office,144570.0,,,91.0,44.40000153,46.79999924,111.0999985,114.0,6423556.5,6771618.5,2121203.0,1260947.625,4302353.0,0.0,0.0,False,Compliant,193.72,1.43,58,0
275,404,2016,NonResidential,Retail Store,O'Shea Building,501 Pine Street,Seattle,WA,98101.0,1975700115,7,DOWNTOWN,47.61159,-122.33601,1.0,4,79957,0,79957,"Office, Retail Store",Retail Store,35694.0,Office,29723.0,25.0,80.30000305,79.09999847,252.1000061,248.1999969,5252131.0,5171529.0,0.0,1539311.375,5252130.0,0.0,0.0,False,Compliant,36.61,0.46,102,0
276,405,2016,NonResidential,Large Office,The Decatur,1511 6th Avenue,Seattle,WA,98101.0,1975700125,7,DOWNTOWN,47.61166,-122.33528,1.0,4,127268,0,127268,"Non-Refrigerated Warehouse, Office, Retail Store",Office,62512.0,Retail Store,53971.0,71.0,63.5,63.5,171.5,171.5,7711757.5,7711757.5,714523.6875,1770165.625,6039805.0,9574.279297,957428.0,True,Error - Correct Default Data,148.11,1.16,95,1
277,406,2016,NonResidential,Large Office,520 Pike Tower,520 Pike Street,Seattle,WA,98101.0,1975700160,7,DOWNTOWN,47.61125,-122.33494,1.0,29,500000,0,500000,"Office, Parking, Retail Store",Office,411301.0,Parking,80005.0,93.0,44.29999924,45.20000076,139.0,141.8999939,18848780.0,19249572.0,0.0,5524260.5,18848777.0,0.0,0.0,False,Compliant,131.4,0.26,33,0
278,408,2016,NonResidential,Large Office,Fourth and Pike Building,1424 4th Ave,Seattle,WA,98101.0,1975700235,7,DOWNTOWN,47.61005,-122.3361,0.0,10,132326,0,132326,"Office, Other, Retail Store",Office,92006.0,Other,12610.0,72.0,52.70000076,53.70000076,159.8000031,163.0,6029020.0,6146691.5,328247.0938,1670053.125,5698221.0,25.51000023,2551.0,False,Compliant,65.2,0.49,90,1
279,409,2016,NonResidential,Large Office,Washington Federal,425 Pike Street,Seattle,WA,98101.0,1975700240,7,DOWNTOWN,47.61033,-122.3357,1.0,6,109830,13200,96630,"Office, Other, Parking, Retail Store",Office,83485.0,Parking,13200.0,45.0,87.90000153,87.90000153,275.8999939,275.8999939,7335905.5,7335905.5,0.0,2150030.75,7335905.0,0.0,0.0,False,Compliant,51.14,0.47,32,0
280,410,2016,NonResidential,Hotel,Motif Seattle,1414 4th Ave,Seattle,WA,98101.0,1975700255,7,DOWNTOWN,47.60996,-122.33572,0.0,19,332067,59280,272787,Hotel,Hotel,332067.0,,,6.0,113.8000031,114.4000015,251.3000031,249.3000031,37785552.0,37984148.0,15586014.0,5803207.0,19800542.0,23989.94922,2398995.0,False,Compliant,1468.5,4.42,43,1
281,411,2016,NonResidential,Large Office,Joshua Green Building,1425 4th Avenue,Seattle,WA,98101.0,1975700305,7,DOWNTOWN,47.60991,-122.33687,1.0,10,130513,0,130513,"Office, Restaurant, Retail Store",Office,87391.0,Retail Store,32264.0,49.0,89.30000305,90.40000153,204.1000061,205.3999939,11651200.0,11792293.0,631029.0,2006739.75,6846996.0,41731.74609,4173175.0,False,Compliant,318.08,2.44,106,1
283,413,2016,NonResidential,Large Office,(ID413) JOSEPH VANCE BLDG,1414 3RD AVE,Seattle,WA,98101.0,1975700340,7,DOWNTOWN,47.60902,-122.33674,1.0,14,137350,0,137350,Office,Office,124508.0,,,89.0,51.09999847,54.79999924,125.4000015,129.1999969,6366084.5,6825027.0,2258855.25,1203759.875,4107229.0,0.0,0.0,False,Compliant,202.99,1.48,87,0
284,414,2016,NonResidential,Large Office,Onni 1411 Fourth Development LP,1411 4TH AVE,Seattle,WA,98101.0,1975700345,7,DOWNTOWN,47.60923,-122.33625,1.0,15,151039,0,151039,Office,Office,125473.0,,,84.0,43.40000153,0.0,92.30000305,0.0,5446624.0,0.0,2850077.75,761004.125,2596546.0,0.0,0.0,False,Compliant,238.09,1.58,87,0
285,415,2016,NonResidential,Large Office,Century Square - COS Compliance,1501 4th Ave,Seattle,WA,98101.0,1975700390,7,DOWNTOWN,47.61022,-122.33745,1.0,30,755000,134662,620338,"Bank Branch, Office, Other, Parking, Restaurant",Office,643083.0,Parking,126891.0,72.0,78.09999847,80.69999695,217.1000061,224.3000031,52226204.0,53974556.0,519390.0,12661185.0,43199963.0,85068.4375,8506844.0,False,Compliant,793.05,1.05,31,1
286,416,2016,NonResidential,Small- and Mid-Sized Office,Chromer Building,1516 2nd Avenue,Seattle,WA,98101.0,1975700440,7,DOWNTOWN,47.60995,-122.33904,1.0,4,63540,0,63540,Office,Office,56747.0,,,72.0,62.0,62.79999924,154.5,155.3999939,3518459.5,3564626.75,0.0,711690.0,2428286.0,10901.72949,1090173.0,False,Compliant,74.83,1.18,110,1
287,417,2016,NonResidential,Large Office,Melbourne Tower,1511 3rd Ave,Seattle,WA,98101.0,1975700465,7,DOWNTOWN,47.60987,-122.33824,1.0,10,130893,0,130893,"Medical Office, Office, Supermarket/Grocery Store",Office,87925.0,Supermarket/Grocery Store,27177.0,80.0,57.20000076,58.79999924,179.6000061,184.8000031,6962073.0,7163323.5,0.0,2040466.625,6962072.0,0.0,0.0,False,Compliant,48.54,0.37,89,0
292,422,2016,NonResidential,Large Office,Two Union Square,601 Union St.,Seattle,WA,98101.0,1976700125,7,DOWNTOWN,47.61043,-122.33206,1.0,56,1605578,389860,1215718,"Office, Other, Parking",Office,1314475.0,Parking,389860.0,97.0,36.79999924,37.90000153,110.3000031,113.3000031,49517704.0,50984500.0,915654.875,13505807.0,46081813.0,25202.29883,2520230.0,False,Compliant,525.78,0.33,27,1
293,423,2016,NonResidential,Large Office,One Union Square,600 University Street,Seattle,WA,98101.0,1976700155,7,DOWNTOWN,47.60967,-122.33229,1.0,36,794592,0,794592,"Office, Other, Parking",Office,748011.0,Parking,36606.0,96.0,35.20000076,36.09999847,108.6999969,111.4000015,26689658.0,27340878.0,0.0,7629382.0,26031451.0,6582.040039,658204.0,False,Compliant,216.43,0.27,36,1
294,424,2016,NonResidential,Large Office,PARK PLACE OFFICE BLDG (ID424),1200 6th Avenue,Seattle,WA,98101.0,1976700185,7,DOWNTOWN,47.60909,-122.33202,1.0,21,456304,93204,363100,"Office, Parking",Office,342952.0,Parking,106466.0,74.0,56.59999847,59.5,177.6000061,187.0,19397324.0,20421248.0,0.0,5685030.0,19397322.0,0.0,0.0,False,Compliant,135.23,0.3,45,0
295,425,2016,NonResidential,Large Office,First and Stewart,101 Stewart Street,Seattle,WA,98101.0,1977200020,7,DOWNTOWN,47.61029,-122.34089,1.0,12,115857,15140,100717,"Office, Parking, Restaurant",Office,104788.0,Parking,11844.0,89.0,45.20000076,45.20000076,141.8000031,141.8000031,4757299.5,4757299.5,0.0,1394284.625,4757299.0,0.0,0.0,False,Compliant,33.17,0.29,30,0
296,426,2016,NonResidential,Small- and Mid-Sized Office,World Trade Center West,2200 Alaskan Way,Seattle,WA,98121.0,1977200135,7,DOWNTOWN,47.61116,-122.34748,1.0,4,87500,17500,70000,"Office, Other",Office,70090.0,Other,1672.0,72.0,63.40000153,63.40000153,199.1000061,199.1000061,4549892.0,4549892.0,0.0,1333496.75,4549891.0,0.0,0.0,False,Compliant,31.72,0.36,17,0
297,427,2016,NonResidential,Large Office,World Trade Center East-Seattle,2211 Elliott Ave,Seattle,WA,98121.0,1977200187,7,DOWNTOWN,47.6117,-122.34778,1.0,11,374405,184776,189629,"Laboratory, Office",Office,150969.0,Laboratory,41829.0,72.0,69.09999847,69.09999847,217.1000061,217.1000061,13329024.0,13329024.0,0.0,3906513.0,13329022.0,0.0,0.0,False,Compliant,92.92,0.25,18,0
299,429,2016,NonResidential,Large Office,Terminal Sales Building,1932 1st Avenue,Seattle,WA,98101.0,1977200920,7,DOWNTOWN,47.61108,-122.34217,1.0,11,102846,0,102846,"Office, Retail Store",Office,93879.0,Retail Store,7500.0,96.0,52.5,59.70000076,98.5,107.0,5327249.5,6047637.0,3480880.75,541139.6875,1846369.0,0.0,0.0,False,Compliant,281.55,2.74,93,0
300,430,2016,NonResidential,Small- and Mid-Sized Office,The Marshall Building,2013 4th Avenue,Seattle,WA,98121.0,1977201245,7,DOWNTOWN,47.61304,-122.34059,1.0,4,52800,0,52800,"Office, Restaurant",Office,38880.0,Restaurant,12960.0,83.0,46.90000153,48.20000076,123.0999985,123.6999969,2429021.0,2500323.75,0.0,536908.6875,1831932.0,5970.880371,597088.0,False,Compliant,44.48,0.84,91,1
306,437,2016,NonResidential,Medical Office,VM Seattle Hospital & Medical Center - Lindeman Pavilion,901 University Street,Seattle,WA,98101.0,1978200280,3,EAST,47.61048,-122.32837,1.0,3,266000,104000,162000,"Medical Office, Parking",Medical Office,162000.0,Parking,104000.0,65.0,85.90000153,86.5,244.1999969,244.8000031,13911761.0,14009703.0,476741.8125,3488557.5,11902958.0,15320.58984,1532059.0,False,Compliant,201.15,0.76,71,1
307,438,2016,NonResidential,Medical Office,1101 Madison Tower,1101 Madison,Seattle,WA,98104.0,1978200625,3,EAST,47.60921,-122.32425,1.0,14,690158,407795,282363,"Medical Office, Parking",Medical Office,270384.0,Parking,270383.0,58.0,78.19999695,78.19999695,245.6999969,245.6999969,21156670.0,21156670.0,0.0,6200665.0,21156669.0,0.0,0.0,False,Compliant,147.49,0.21,24,0
308,439,2016,NonResidential,Mixed Use Property,Fisher Plaza - East Building,140 4th Ave N,Seattle,WA,98109.0,1991200150,7,LAKE UNION,47.61915,-122.34857,1.0,6,378443,177660,200783,"Data Center, Office, Parking, Performing Arts, Restaurant, Retail Store",Parking,164332.0,Office,108781.0,100.0,283.7000122,283.7000122,874.0999756,874.0999756,55073120.0,55073120.0,0.0,15681864.0,53506520.0,15665.93945,1566594.0,False,Compliant,456.22,1.21,15,1
309,440,2016,NonResidential,Mixed Use Property,Fisher Plaza - West Building,100 4th Ave N,Seattle,WA,98109.0,1991200170,7,LAKE UNION,47.61915,-122.34857,1.0,6,213834,104922,108912,"Data Center, Financial Office, Office, Other, Parking, Restaurant",Parking,104922.0,Data Center,54385.0,100.0,707.2999878,707.2999878,2217.800049,2217.800049,75073888.0,75073888.0,0.0,21957020.0,74917352.0,1565.25,156525.0,False,Compliant,530.59,2.48,15,1
310,441,2016,NonResidential,Hotel,Best Western Executive Inn,200 Taylor Ave N,Seattle,WA,98109.0,1991200540,7,LAKE UNION,47.62036,-122.34588,1.0,5,109017,29409,79608,Hotel,Hotel,109017.0,,,34.0,86.90000153,89.0,199.1000061,205.8000031,9474745.0,9707963.0,0.0,1648708.875,5625395.0,38493.49609,3849350.0,False,Compliant,243.66,2.24,37,1
311,443,2016,NonResidential,Large Office,Elliott Bay Office Park,300 Elliott Avenue West,Seattle,WA,98119.0,1992200170,7,MAGNOLIA / QUEEN ANNE,47.62177,-122.36158,1.0,5,275734,38452,237282,"Office, Parking",Office,228504.0,Parking,47404.0,77.0,71.69999695,71.69999695,225.0,225.0,16373232.0,16373232.0,0.0,4798719.0,16373229.0,0.0,0.0,False,Compliant,114.14,0.41,35,0
312,444,2016,NonResidential,Warehouse,FedEX van Terminal,651 S Alaska St,Seattle,WA,98104.0,2024049016,2,GREATER DUWAMISH,47.56064,-122.32522,1.0,1,123061,0,123061,Non-Refrigerated Warehouse,Non-Refrigerated Warehouse,123061.0,,,59.0,16.20000076,16.20000076,50.70000076,50.70000076,1987934.625,1987934.625,0.0,582630.1875,1987934.0,0.0,0.0,False,Compliant,13.86,0.11,15,0
313,446,2016,NonResidential,Distribution Center,Washington State Ferries Building,6000 6th Ave S,Seattle,WA,98108.0,2024049060,2,GREATER DUWAMISH,47.54868,-122.3255,1.0,1,59090,0,59090,"Distribution Center, Office",Distribution Center,40272.0,Office,18818.0,45.0,46.59999847,53.40000153,71.40000153,78.90000153,2756214.75,3153949.5,0.0,185927.7969,634386.0,21218.28906,2121829.0,False,Compliant,117.11,1.98,53,1
314,447,2016,NonResidential,Warehouse,NWCP-SEA Sylv Bldg,750 S Michigan St,Seattle,WA,98108.0,2024049061,2,GREATER DUWAMISH,47.5471,-122.32406,1.0,1,106000,0,106000,Non-Refrigerated Warehouse,Non-Refrigerated Warehouse,106001.0,,,93.0,7.199999809,7.199999809,22.60000038,22.60000038,763364.5,763364.5,0.0,223729.2969,763364.0,0.0,0.0,False,Compliant,5.32,0.05,53,0
315,449,2016,NonResidential,Large Office,1551 Eastlake,1551 Eastlake Ave E,Seattle,WA,98102.0,2107700210,4,LAKE UNION,47.63349,-122.32634,1.0,3,158600,38400,120200,"Laboratory, Office, Parking",Office,125779.0,Parking,32821.0,19.0,125.5999985,126.6999969,360.3999939,361.6000061,18309150.0,18471858.0,0.0,4672048.0,15941028.0,23681.20117,2368120.0,False,Compliant,236.9,1.49,54,1
316,451,2016,NonResidential,Distribution Center,Frye Distribution Center,660 S. Othello St.,Seattle,WA,98108.0,2136200695,2,GREATER DUWAMISH,47.53764,-122.3232,1.0,1,119661,0,119661,Distribution Center,Distribution Center,118733.0,,,97.0,6.5,6.5,20.5,20.5,775729.1875,775864.1875,0.0,227129.2969,774965.0,7.638800144,764.0,False,Compliant,5.44,0.05,56,1
317,452,2016,NonResidential,Large Office,1144 Eastlake Building,1144 Eastlake Ave East,Seattle,WA,98109.0,2163901080,3,LAKE UNION,47.62958,-122.32826,1.0,7,139200,44728,94472,Office,Office,82098.0,,,81.0,52.90000153,52.90000153,166.1000061,166.1000061,4342597.0,4342597.0,0.0,1272742.25,4342597.0,0.0,0.0,False,Compliant,30.27,0.22,15,0
318,453,2016,NonResidential,Small- and Mid-Sized Office,701 Dexter,701 Dexter Avenue North,Seattle,WA,98119.0,2249000245,7,MAGNOLIA / QUEEN ANNE,47.62566,-122.34287,1.0,6,95721,33921,61800,"Office, Parking",Office,95721.0,Parking,31746.0,95.0,32.0,33.0,100.5,103.5,3063504.5,3155171.75,0.0,897861.6875,3063504.0,0.0,0.0,False,Compliant,21.36,0.22,32,0
319,456,2016,NonResidential,Large Office,1100 Dexter-RREEF SeaDPD ID 456,1100 Dexter Avenue North,Seattle,WA,98109.0,2249500490,7,MAGNOLIA / QUEEN ANNE,47.62929,-122.34194,2.0,5,213283,115228,98055,"Office, Parking",Office,105563.0,Parking,0.0,83.0,53.59999847,53.59999847,168.3999939,168.3999939,5661689.5,5661689.5,0.0,1659346.125,5661689.0,0.0,0.0,False,Compliant,39.47,0.19,20,0
320,457,2016,NonResidential,Large Office,1441 N. 34th Street,1441 N 34TH ST,Seattle,WA,98103.0,2264501110,4,LAKE UNION,47.64776,-122.33924,1.0,3,103697,47656,56041,Office,Office,63199.0,,,7.0,179.1000061,184.6999969,350.2999878,356.1000061,11319836.0,11672252.0,0.0,1437351.5,4904243.0,64155.92188,6415592.0,False,Compliant,374.92,3.62,15,1
321,458,2016,NonResidential,Small- and Mid-Sized Office,Northgate Exec Center B,155 NE 100th Street,Seattle,WA,98125.0,2434900010,5,NORTH,47.70105,-122.32659,1.0,5,74880,0,74880,"Office, Parking",Office,71751.0,Parking,0.0,56.0,71.59999847,77.09999847,224.6999969,242.1000061,5134607.5,5531460.0,0.0,1504867.25,5134607.0,0.0,0.0,False,Compliant,35.8,0.48,42,0
322,459,2016,NonResidential,Small- and Mid-Sized Office,Northgate Exec Center C,9725 3rd Avenue,Seattle,WA,98115.0,2434900020,5,NORTH,47.69999,-122.32663,1.0,6,88774,0,88774,"Office, Parking",Office,85339.0,Parking,0.0,53.0,70.59999847,74.40000153,221.8000031,233.8000031,6029121.5,6353294.0,0.0,1767034.25,6029121.0,0.0,0.0,False,Compliant,42.03,0.47,37,0
323,460,2016,NonResidential,Large Office,Northgate Plaza,9709 3rd Ave NE,Seattle,WA,98115.0,2434900030,5,NORTH,47.69917,-122.3268,1.0,5,122250,0,122250,"Adult Education, Bank Branch, Office, Parking",Office,91281.0,Adult Education,30177.0,93.0,43.5,43.5,136.3999939,136.3999939,5535626.0,5535626.0,0.0,1622399.0,5535625.0,0.0,0.0,False,Compliant,38.59,0.32,33,0
324,461,2016,NonResidential,Small- and Mid-Sized Office,Northgate Office Building,9750 3rd Ave NE,Seattle,WA,98115.0,2434900100,5,NORTH,47.70063,-122.32487,1.0,4,53730,0,53730,"Office, Parking",Office,53730.0,Parking,0.0,20.0,88.30000305,88.30000305,277.2000122,277.2000122,4742869.0,4742869.0,0.0,1390055.25,4742869.0,0.0,0.0,False,Compliant,33.06,0.62,37,0
325,462,2016,NonResidential,Small- and Mid-Sized Office,Delridge Building,4045 Delridge Way,Seattle,WA,98101.0,2444600005,1,DELRIDGE,47.5671,-122.36416,1.0,3,55593,0,55593,Office,Office,55593.0,,,55.0,76.0,79.40000153,186.6999969,190.1999969,4224872.5,4414587.0,0.0,833103.5,2842549.0,13823.23047,1382323.0,False,Compliant,93.23,1.68,56,1
326,463,2016,NonResidential,Large Office,425 Pontius,425 Pontius Ave N,Seattle,WA,98109.0,2467400315,7,LAKE UNION,47.62269,-122.33224,1.0,4,134056,60960,73096,"Office, Parking",Office,72066.0,Parking,59137.0,54.0,65.19999695,68.0,204.6000061,213.5,4695139.0,4899096.0,0.0,1376066.25,4695138.0,0.0,0.0,False,Compliant,32.73,0.24,34,0
327,464,2016,NonResidential,Retail Store,Costco #0001 Seattle,4401 4th Ave South,Seattle,WA,98199.0,2617650020,2,GREATER DUWAMISH,47.5653,-122.33076,1.0,1,158415,0,158415,Retail Store,Retail Store,158415.0,,,25.0,141.3999939,147.0,358.6000061,364.5,22394416.0,23293664.0,0.0,4668122.5,15927634.0,64667.80469,6466780.0,False,Compliant,454.49,2.87,11,1
330,492,2016,NonResidential,Small- and Mid-Sized Office,Queen Anne Plaza,201 Queen Anne Ave N,Seattle,WA,98109.0,1989201010,7,MAGNOLIA / QUEEN ANNE,47.62003,-122.35706,1.0,4,86995,28800,58195,"Office, Parking",Office,58195.0,Parking,28800.0,81.0,51.40000153,51.90000153,161.3999939,162.8000031,2991674.75,3018140.75,0.0,876809.625,2991674.0,0.0,0.0,False,Compliant,20.86,0.24,31,0
331,467,2016,NonResidential,Retail Store,70100608-Ballard,915 NW 45th Street,Seattle,WA,98107.0,1982202070,6,BALLARD,47.66057,-122.36857,1.0,1,164437,0,164437,"Parking, Retail Store, Supermarket/Grocery Store",Retail Store,102653.0,Supermarket/Grocery Store,74102.0,62.0,104.0,107.6999969,276.0,278.0,18390344.0,19031574.0,0.0,4132326.75,14099499.0,42908.43359,4290843.0,False,Compliant,326.18,1.98,17,1
332,468,2016,NonResidential,Large Office,Interurban Exchange II - SEDO,535 Terry Ave. North,Seattle,WA,98109.0,1983200150,7,LAKE UNION,47.62402,-122.33755,1.0,5,184482,66234,118248,"Office, Other, Parking",Office,118016.0,Parking,66234.0,95.0,47.40000153,49.09999847,148.5,153.6000061,5671256.0,5869476.5,0.0,1656231.0,5651060.0,201.9499969,20195.0,False,Compliant,40.47,0.22,7,1
335,471,2016,NonResidential,Large Office,428 Westlake,428 Westlake Avenue N.,Seattle,WA,98109.0,1983200245,7,LAKE UNION,47.62286,-122.33804,1.0,6,139282,52582,86700,"Financial Office, Food Service, Office, Other, Parking",Office,79384.0,Parking,52582.0,96.0,37.29999924,37.29999924,117.3000031,117.3000031,3238216.0,3238216.0,0.0,949066.6875,3238216.0,0.0,0.0,False,Compliant,22.57,0.16,12,0
336,473,2016,NonResidential,Large Office,City Place II - SEDO,500 Boren Ave. N.,Seattle,WA,98109.0,1983200585,7,LAKE UNION,47.62383,-122.3356,1.0,5,271071,98700,172371,"Medical Office, Office, Parking",Office,168132.0,Parking,96918.0,96.0,42.40000153,43.0,131.5,133.3000031,7851334.5,7960023.0,0.0,2255357.5,7695280.0,1560.540039,156054.0,False,Compliant,61.93,0.23,7,1
337,474,2016,NonResidential,Warehouse,08185-Lake Union,700 Fairview Ave N,Seattle,WA,98109.0,1984200035,3,LAKE UNION,47.62572,-122.33389,1.0,5,127800,0,127800,Non-Refrigerated Warehouse,Non-Refrigerated Warehouse,127800.0,,,56.0,21.70000076,22.0,64.40000153,64.69999695,2767491.0,2811924.5,0.0,746069.875,2545590.0,2219.0,221900.0,False,Compliant,29.53,0.23,102,1
338,475,2016,NonResidential,Large Office,Arnold Building,1100 Fairview Ave No.,Seattle,WA,98109.0,1984200135,3,LAKE UNION,47.62855,-122.33035,1.0,5,560516,206597,353919,"Office, Parking",Office,372503.0,Parking,189133.0,71.0,80.80000305,81.59999847,202.1999969,200.6000061,30083496.0,30401640.0,0.0,6132058.5,20922584.0,91609.10156,9160910.0,False,Compliant,632.4,1.13,14,1
339,476,2016,NonResidential,Large Office,Yale,823 Yale Ave N.,Seattle,WA,98109.0,1984200185,3,LAKE UNION,47.62621,-122.33128,1.0,6,226592,95000,131592,"Office, Parking",Office,131592.0,Parking,83178.0,49.0,90.90000153,89.80000305,281.6000061,278.0,11963428.0,11812678.0,0.0,3434879.5,11719809.0,2436.178711,243618.0,False,Compliant,94.64,0.42,15,1
342,481,2016,NonResidential,Large Office,Westlake Terry - East SEDO,321 Terry Ave. N.,Seattle,WA,98109.0,1986200185,7,LAKE UNION,47.62137,-122.33744,1.0,4,209816,73673,136143,"Fitness Center/Health Club/Gym, Office, Parking, Restaurant",Office,113803.0,Parking,79091.0,97.0,51.0,51.0,135.1999969,135.1999969,6917478.5,6917478.5,0.0,1554456.625,5303806.0,16136.71973,1613672.0,False,Compliant,122.68,0.58,10,1
343,482,2016,NonResidential,Large Office,Westlake Terry - West SEDO,320 Westlake Ave. N.,Seattle,WA,98109.0,1986200215,7,LAKE UNION,47.62131,-122.33814,1.0,6,303103,109905,193198,"Bank Branch, Office, Parking",Office,178628.0,Parking,99368.0,97.0,40.70000076,40.90000153,123.6999969,123.9000015,7519466.5,7554767.0,0.0,2094799.75,7147457.0,3720.090332,372009.0,False,Compliant,69.59,0.23,10,1
344,484,2016,NonResidential,Mixed Use Property,Fred Rogers Building,1020 John St.,Seattle,WA,98109.0,1986200380,7,LAKE UNION,47.62002,-122.33687,1.0,3,67380,0,67380,"Non-Refrigerated Warehouse, Office, Other, Other - Entertainment/Public Assembly, Parking",Non-Refrigerated Warehouse,29732.0,Office,17372.0,66.0,42.09999847,46.79999924,94.19999695,99.19999695,2755829.0,3066491.25,0.0,459033.0938,1566221.0,11896.08008,1189608.0,False,Compliant,74.1,1.1,62,1
347,489,2016,NonResidential,Small- and Mid-Sized Office,200 West Thomas,200 West Thomas St,Seattle,WA,98119.0,1989200615,7,MAGNOLIA / QUEEN ANNE,47.62115,-122.3597,1.0,5,88062,20826,67236,"Office, Parking",Office,64752.0,Parking,21396.0,80.0,52.70000076,55.0,165.6000061,172.6000061,3415561.25,3558562.5,0.0,1001043.625,3415561.0,0.0,0.0,False,Compliant,23.81,0.27,42,0
348,490,2016,NonResidential,Small- and Mid-Sized Office,North Tower,100 West Harrison,Seattle,WA,98119.0,1989200720,7,MAGNOLIA / QUEEN ANNE,47.62224,-122.3585,1.0,5,87178,20416,66762,"Office, Parking",Office,66648.0,Parking,15167.0,69.0,54.5,57.59999847,171.1000061,180.8000031,3632613.75,3838006.75,0.0,1064658.125,3632614.0,0.0,0.0,False,Compliant,25.32,0.29,44,0
349,491,2016,NonResidential,Small- and Mid-Sized Office,South Tower,100 West Harrison,Seattle,WA,98119.0,1989200740,7,MAGNOLIA / QUEEN ANNE,47.62224,-122.3585,1.0,5,87178,20416,66762,"Office, Parking",Office,66747.0,Parking,28285.0,86.0,52.29999924,55.5,164.3000031,174.3000031,3493093.75,3705629.0,0.0,1023767.125,3493093.0,0.0,0.0,False,Compliant,24.35,0.28,46,0
350,493,2016,NonResidential,Small- and Mid-Sized Office,200 First Ave W,200 1ST AVE W,Seattle,WA,98119.0,1989201020,7,MAGNOLIA / QUEEN ANNE,47.62014,-122.35768,1.0,5,88000,21600,66400,"Office, Parking",Office,69691.0,Parking,17487.0,75.0,50.0,0.0,157.0,0.0,3484915.5,0.0,0.0,1021370.188,3484915.0,0.0,0.0,False,Compliant,24.29,0.28,45,0
351,494,2016,NonResidential,Medical Office,4225 Roosevelt 2ros4225,4225 Roosevelt Way NE,Seattle,WA,98105.0,1145000200,4,NORTHEAST,47.65821,-122.31831,1.0,4,196749,88405,108344,"Medical Office, Parking",Medical Office,108344.0,Parking,88405.0,5.0,176.8999939,182.0,411.5,416.2999878,19165116.0,19718338.0,0.0,3430113.5,11703547.0,74615.66406,7461566.0,False,Compliant,477.87,2.43,28,1
352,495,2016,NonResidential,Medical Office,4245 Roosevelt 2ros4245,4245 Roosevelt Way NE,Seattle,WA,98105.0,1145000310,4,NORTHEAST,47.65884,-122.3183,1.0,4,191276,95281,95995,Medical Office,Medical Office,95995.0,,,21.0,87.69999695,87.69999695,266.3999939,266.3999939,8422861.0,8422861.0,0.0,2346217.25,8005293.0,4175.669922,417567.0,False,Compliant,77.99,0.41,22,1
354,497,2016,NonResidential,Warehouse,08176-West Seattle,2964 Sw Avalon Way,Seattle,WA,98126.0,1324039093,1,SOUTHWEST,47.56885,-122.37121,1.0,4,98475,0,98475,Non-Refrigerated Warehouse,Non-Refrigerated Warehouse,98475.0,,,83.0,11.10000038,12.0,27.89999962,28.89999962,1090496.625,1178591.625,0.0,225380.0,768997.0,3215.0,321500.0,False,Compliant,22.44,0.23,19,1
355,498,2016,NonResidential,Hospital,SCCA,825 Eastlake Ave E,Seattle,WA,98109.0,1361300055,3,LAKE UNION,47.62667,-122.32965,1.0,7,351530,150455,201075,Hospital (General Medical & Surgical),Hospital (General Medical & Surgical),215602.0,,,23.0,198.1000061,200.3000031,467.6000061,465.1000061,42709624.0,43178016.0,0.0,7849323.5,26781892.0,159277.2813,15927728.0,False,Compliant,1032.63,2.94,16,1
356,500,2016,NonResidential,Supermarket / Grocery Store,70100179-Lake City,13000 Lake City Way NE,Seattle,WA,98125.0,1453601660,5,NORTH,47.7237,-122.29232,1.0,2,308965,187878,121087,"Parking, Supermarket/Grocery Store",Supermarket/Grocery Store,121087.0,Parking,0.0,78.0,119.9000015,122.5999985,310.2000122,310.8999939,14512786.0,14843382.0,0.0,3130371.0,10680826.0,38319.58594,3831959.0,False,Compliant,277.98,0.9,21,1
357,503,2016,NonResidential,Supermarket / Grocery Store,RESTAURANT DEPOT SEATTLE (ID503),3670 E MARGINAL WAY S,Seattle,WA,98134.0,1824049003,2,GREATER DUWAMISH,47.56895,-122.33775,1.0,1,63225,0,63225,Supermarket/Grocery Store,Supermarket/Grocery Store,63225.0,,,100.0,103.1999969,103.1999969,323.8999939,323.8999939,6522551.5,6522551.5,0.0,1911650.25,6522551.0,0.0,0.0,False,Compliant,45.47,0.72,8,0
359,507,2016,NonResidential,Warehouse,Skyline-East Marginal,4401 E Marginal Way S,Seattle,WA,98134.0,1824049063,2,GREATER DUWAMISH,47.56419,-122.34262,1.0,1,243044,0,243044,Non-Refrigerated Warehouse,Non-Refrigerated Warehouse,325424.0,,,100.0,4.300000191,4.300000191,9.0,9.0,1396082.25,1396082.25,0.0,205444.5938,700977.0,6951.050293,695105.0,False,Compliant,41.8,0.17,17,1
362,514,2016,NonResidential,Retail Store,W000252-NORTH SEATTLE WA,12525 AURORA AVENUE NORTH,Seattle,WA,98133.0,1926049033,5,NORTHWEST,47.72053,-122.34739,1.0,1,131387,0,131387,Retail Store,Retail Store,107931.0,,,72.0,81.30000305,82.90000153,234.5,234.0,8773058.0,8949319.0,0.0,2258064.0,7704514.0,10685.42188,1068542.0,False,Compliant,110.46,0.84,19,1
363,515,2016,NonResidential,Warehouse,0643-Seattle - North 130th Street,1430 North 130th Street,Seattle,WA,98133.0,1926049045,5,NORTHWEST,47.72377,-122.34095,1.0,3,94400,0,94400,Non-Refrigerated Warehouse,Non-Refrigerated Warehouse,67155.0,,,38.0,11.69999981,11.89999962,33.5,33.70000076,784364.5,800622.875,0.0,199550.0,680865.0,1035.000122,103500.0,False,Compliant,10.24,0.11,17,1
365,517,2016,NonResidential,Supermarket / Grocery Store,Sam's Club #18-6687,13550 Aurora Ave. N.,Seattle,WA,98133.0,1926049230,5,NORTHWEST,47.72803,-122.34214,0.0,1,144776,0,144776,Wholesale Club/Supercenter,Wholesale Club/Supercenter,144776.0,,,56.0,92.69999695,95.5,246.1999969,249.1000061,13424079.0,13827966.0,0.0,3020895.5,10307295.0,31167.82617,3116783.0,False,Compliant,237.39,1.64,32,1
366,518,2016,NonResidential,Retail Store,AURORA ACRES (ID518),13200 AURORA AVE N,Seattle,WA,98133.0,1926049371,5,NORTHWEST,47.7249,-122.34332,1.0,1,114000,0,114000,"Retail Store, Supermarket/Grocery Store",Retail Store,57805.0,Supermarket/Grocery Store,56312.0,79.0,150.8999939,150.8999939,302.0,302.0,17225444.0,17225444.0,0.0,2296774.5,7836595.0,93888.48438,9388848.0,False,Compliant,553.27,4.85,49,1
367,519,2016,NonResidential,Supermarket / Grocery Store,00410-Hwy 99 & 130th,13050 Aurora Avenue North,Seattle,WA,98133.0,1926049424,5,NORTHWEST,47.7235,-122.34458,1.0,1,50083,0,50083,"Parking, Supermarket/Grocery Store",Supermarket/Grocery Store,50065.0,Parking,0.0,78.0,173.0,177.8000031,454.2000122,459.2000122,8663691.0,8901074.0,0.0,1913361.75,6528390.0,21353.00195,2135300.0,False,Compliant,158.92,3.17,19,1
368,520,2016,NonResidential,Large Office,Burke Building,400 North 34th Street,Seattle,WA,98103.0,1972203220,6,LAKE UNION,47.65086,-122.35412,1.0,3,124071,28645,95426,Office,Office,96504.0,,,73.0,51.70000076,51.70000076,162.3999939,162.3999939,4991360.5,4991360.5,0.0,1462254.125,4989211.0,21.48999977,2149.0,False,Compliant,34.9,0.28,28,1
369,521,2016,NonResidential,Small- and Mid-Sized Office,The Evanston Building,501 N 34th Street,Seattle,WA,98103.0,1972206507,6,LAKE UNION,47.64963,-122.35158,1.0,4,90000,36528,53472,Office,Office,90000.0,,,84.0,43.29999924,43.29999924,136.0,136.0,3897738.0,3897738.0,0.0,1142361.5,3897737.0,0.0,0.0,False,Compliant,27.17,0.3,16,0
370,522,2016,NonResidential,Small- and Mid-Sized Office,The Waterside Building,651 N 34th St,Seattle,WA,98103.0,1973200353,6,LAKE UNION,47.64849,-122.35041,1.0,3,96041,33709,62332,"Office, Parking",Office,62232.0,Parking,33709.0,70.0,87.0,87.0,273.1000061,273.1000061,5413418.0,5413418.0,0.0,1586581.875,5413417.0,0.0,0.0,False,Compliant,37.74,0.39,15,0
371,523,2016,NonResidential,Large Office,Adobe Seattle,801 N 34th,Seattle,WA,98103.0,1973200385,6,LAKE UNION,47.64822,-122.34848,1.0,3,280957,114829,166128,"Data Center, Office, Parking, Restaurant",Office,152579.0,Parking,93893.0,96.0,68.69999695,68.69999695,211.3000031,211.3000031,11325513.0,11325513.0,0.0,3219974.5,10986553.0,3366.104004,336610.0,False,Compliant,94.47,0.34,17,1
372,524,2016,NonResidential,Large Office,Plaza 701 N 34th,701 N. 34th Street,Seattle,WA,98103.0,1973200387,6,LAKE UNION,47.64882,-122.34905,1.0,4,243334,103032,140302,"Office, Parking",Office,138995.0,Parking,24549.0,89.0,62.20000076,62.20000076,187.3999939,187.3999939,8651835.0,8651835.0,0.0,2378856.0,8116657.0,5351.779785,535178.0,False,Compliant,85.01,0.35,17,1
374,526,2016,NonResidential,Large Office,Seattle Design Center (Plaza Center),5601 6th Ave. S,Seattle,WA,98108.0,2738100010,2,GREATER DUWAMISH,47.55146,-122.32832,1.0,5,390295,121375,268920,"Office, Parking",Office,243018.0,Parking,108408.0,95.0,31.60000038,31.60000038,99.30000305,99.30000305,7683885.0,7683885.0,0.0,2252017.5,7683884.0,0.0,0.0,False,Compliant,53.57,0.14,34,0
